full address,latitude,longitude,Pojemnosc,Rodzaj klienta,Kod pocz.,Miasto,Ulica,Nr budynku,Ilość poj.,Kod odpadu,Cykl,Harmonogram,Numer tygodnia,Dni tygodnia,Okres_start,Okres_stop,Suma kontrolna,1Pn,1Wt,1Sr,1Cz,1Pt,1So,2Pn,2Wt,2Sr,2Cz,2Pt,2So,3Pn,3Wt,3Sr,3Cz,3Pt,3So,4Pn,4Wt,4Sr,4Cz,4Pt,4So,Częstotliwość,groups,outliner,new_frequency,route
"Zawodzie 18, 02-981 Warszawa",52.18342590332031,21.08544158935547,0.0,,,,,,,,,,,,,,,,,,,,,,,,,,,,,,,,,,,,,,,,,,,1
"Poland, 02-665, Warszawa, Al. Wilanowska, 21",52.179378509521484,21.02096939086914,495.0,BWA,02-665,Warszawa,Al. Wilanowska,21.0,1.0,200108_200201_200301,poniedziałek czwartek sobota,3 razy w tygodniu,"1, 2, 3, 4","Pn, Cz, So",0.0,0.0,12.0,1.0,0.0,0.0,1.0,0.0,1.0,1.0,0.0,0.0,1.0,0.0,1.0,1.0,0.0,0.0,1.0,0.0,1.0,1.0,0.0,0.0,1.0,0.0,1.0,4Pn,4Pn_B_200108_200201_200301,0.0,4Pn_B_200108_200201_200301,1
"Poland, 00-507, Warszawa, Bokserska, 25",52.16753005981445,21.00526237487793,3150.0,BWC,00-507,Warszawa,Bokserska,25.0,1.0,200108_200201_200301,co tydzień poniedziałek,1 raz w tygodniu,"1, 2, 3, 4",Pn,0.0,0.0,4.0,1.0,0.0,0.0,0.0,0.0,0.0,1.0,0.0,0.0,0.0,0.0,0.0,1.0,0.0,0.0,0.0,0.0,0.0,1.0,0.0,0.0,0.0,0.0,0.0,4Pn,4Pn_B_200108_200201_200301,0.0,4Pn_B_200108_200201_200301,1
"Poland, 02-822, Warszawa, Poleczki, 13",52.1534309387207,21.011205673217773,108.0,BWC,02-822,Warszawa,Poleczki,13.0,1.0,200108_200201_200301,2 i 4 poniedziałek,2 razy w miesiącu,"2, 4",Pn,0.0,0.0,2.0,0.0,0.0,0.0,0.0,0.0,0.0,1.0,0.0,0.0,0.0,0.0,0.0,0.0,0.0,0.0,0.0,0.0,0.0,1.0,0.0,0.0,0.0,0.0,0.0,4Pn,4Pn_B_200108_200201_200301,0.0,4Pn_B_200108_200201_200301,1
"Poland, 02-868, Warszawa, Sarabandy, 24",52.113525390625,21.013566970825195,54.0,BWC,02-868,Warszawa,Sarabandy,24.0,1.0,200108_200201_200301,co tydzień poniedziałek,1 raz w tygodniu,"1, 2, 3, 4",Pn,0.0,0.0,4.0,1.0,0.0,0.0,0.0,0.0,0.0,1.0,0.0,0.0,0.0,0.0,0.0,1.0,0.0,0.0,0.0,0.0,0.0,1.0,0.0,0.0,0.0,0.0,0.0,4Pn,4Pn_B_200108_200201_200301,0.0,4Pn_B_200108_200201_200301,1
"Poland, 05-500, Mysiadło, Słowicza, 31",52.099796295166016,21.02393913269043,108.0,BWC,05-500,Mysiadło,Słowicza,31.0,1.0,200108_200201_200301,2 i 4 środa,2 razy w miesiącu,"2, 4",Sr,0.0,0.0,2.0,0.0,0.0,0.0,0.0,0.0,0.0,0.0,0.0,1.0,0.0,0.0,0.0,0.0,0.0,0.0,0.0,0.0,0.0,0.0,0.0,1.0,0.0,0.0,0.0,4Sr,4Sr_B_200108_200201_200301,1.0,4Pn_B_200108_200201_200301,1
"Poland, 05-500 , Piaseczno, Plac Piłsudskiego, 22",52.074913024902344,21.028196334838867,495.0,BWB,05-500 ,Piaseczno,Plac Piłsudskiego,22.0,1.0,200108_200201_200301,co tydzień poniedziałek,1 raz w tygodniu,"1, 2, 3, 4",Pn,0.0,0.0,4.0,1.0,0.0,0.0,0.0,0.0,0.0,1.0,0.0,0.0,0.0,0.0,0.0,1.0,0.0,0.0,0.0,0.0,0.0,1.0,0.0,0.0,0.0,0.0,0.0,4Pn,4Pn_B_200108_200201_200301,0.0,4Pn_B_200108_200201_200301,1
"Poland, 05-500 , Piaseczno, Stołeczna, 28",52.06043243408203,21.00943374633789,495.0,BWC,05-500 ,Piaseczno,Stołeczna,28.0,1.0,200108_200201_200301,co tydzień poniedziałek,1 raz w tygodniu,"1, 2, 3, 4",Pn,0.0,0.0,4.0,1.0,0.0,0.0,0.0,0.0,0.0,1.0,0.0,0.0,0.0,0.0,0.0,1.0,0.0,0.0,0.0,0.0,0.0,1.0,0.0,0.0,0.0,0.0,0.0,4Pn,4Pn_B_200108_200201_200301,0.0,4Pn_B_200108_200201_200301,1
"Poland, 05-500 , Piaseczno, Herberta, 14",52.066650390625,20.999752044677734,108.0,BWC,05-500 ,Piaseczno,Herberta,14.0,1.0,200108_200201_200301,2 i 4 poniedziałek,2 razy w miesiącu,"2, 4",Pn,0.0,0.0,2.0,0.0,0.0,0.0,0.0,0.0,0.0,1.0,0.0,0.0,0.0,0.0,0.0,0.0,0.0,0.0,0.0,0.0,0.0,1.0,0.0,0.0,0.0,0.0,0.0,4Pn,4Pn_B_200108_200201_200301,0.0,4Pn_B_200108_200201_200301,1
"Poland, 05-500 , Piaseczno, Orężna, 25",52.069236755371094,20.989906311035156,495.0,BWB,05-500 ,Piaseczno,Orężna,25.0,1.0,200108_200201_200301,2 i 4 poniedziałek,2 razy w miesiącu,"2, 4",Pn,0.0,0.0,2.0,0.0,0.0,0.0,0.0,0.0,0.0,1.0,0.0,0.0,0.0,0.0,0.0,0.0,0.0,0.0,0.0,0.0,0.0,1.0,0.0,0.0,0.0,0.0,0.0,4Pn,4Pn_B_200108_200201_200301,0.0,4Pn_B_200108_200201_200301,1
"Poland, 05-500 , Piaseczno, Orzechowa, 20",52.05488204956055,20.925369262695312,495.0,BWC,05-500 ,Piaseczno,Orzechowa,20.0,1.0,200108_200201_200301,co tydzień poniedziałek,1 raz w tygodniu,"1, 2, 3, 4",Pn,0.0,0.0,4.0,1.0,0.0,0.0,0.0,0.0,0.0,1.0,0.0,0.0,0.0,0.0,0.0,1.0,0.0,0.0,0.0,0.0,0.0,1.0,0.0,0.0,0.0,0.0,0.0,4Pn,4Pn_B_200108_200201_200301,0.0,4Pn_B_200108_200201_200301,1
"Poland, 05-503, Wola Gołkowska, Piesza, 30",52.05037307739258,20.931604385375977,495.0,BWC,05-503,Wola Gołkowska,Piesza,30.0,1.0,200108_200201_200301,2 i 4 poniedziałek,2 razy w miesiącu,"2, 4",Pn,0.0,0.0,2.0,0.0,0.0,0.0,0.0,0.0,0.0,1.0,0.0,0.0,0.0,0.0,0.0,0.0,0.0,0.0,0.0,0.0,0.0,1.0,0.0,0.0,0.0,0.0,0.0,4Pn,4Pn_B_200108_200201_200301,0.0,4Pn_B_200108_200201_200301,1
"Poland, 05-503, Głosków, Korczunkowa, 25",52.02527618408203,20.945322036743164,495.0,BWC,05-503,Głosków,Korczunkowa,25.0,1.0,200108_200201_200301,poniedziałek środa,2 razy w tygodniu,"1, 2, 3, 4","Pn, Sr",0.0,0.0,8.0,1.0,0.0,1.0,0.0,0.0,0.0,1.0,0.0,1.0,0.0,0.0,0.0,1.0,0.0,1.0,0.0,0.0,0.0,1.0,0.0,1.0,0.0,0.0,0.0,4Pn,4Pn_B_200108_200201_200301,0.0,4Pn_B_200108_200201_200301,1
"Poland, 05-540, Zalesie Górne, Młodych Wilcząt, 20",52.02802658081055,21.03854751586914,346.5,BWC,05-540,Zalesie Górne,Młodych Wilcząt,20.0,1.0,200108_200201_200301,co tydzień poniedziałek,1 raz w tygodniu,"1, 2, 3, 4",Pn,0.0,0.0,4.0,1.0,0.0,0.0,0.0,0.0,0.0,1.0,0.0,0.0,0.0,0.0,0.0,1.0,0.0,0.0,0.0,0.0,0.0,1.0,0.0,0.0,0.0,0.0,0.0,4Pn,4Pn_B_200108_200201_200301,0.0,4Pn_B_200108_200201_200301,1
"Poland, 05-500 , Piaseczno, Julianowska, 21",51.954105377197266,21.09845733642578,108.0,BWC,05-500 ,Piaseczno,Julianowska,21.0,1.0,200108_200201_200301,co tydzień poniedziałek,1 raz w tygodniu,"1, 2, 3, 4",Pn,0.0,0.0,4.0,1.0,0.0,0.0,0.0,0.0,0.0,1.0,0.0,0.0,0.0,0.0,0.0,1.0,0.0,0.0,0.0,0.0,0.0,1.0,0.0,0.0,0.0,0.0,0.0,4Pn,4Pn_B_200108_200201_200301,1.0,4Pn_B_200108_200201_200301,1
"Poland, 96-314, Baranów, Północna, 24",51.559051513671875,22.139217376708984,495.0,BRA,96-314,Baranów,Północna,24.0,1.0,200108_200201_200301,poniedziałek środa piątek,3 razy w tygodniu,"1, 2, 3, 4","Pn, Sr, Pt",0.0,0.0,12.0,1.0,0.0,1.0,0.0,1.0,0.0,1.0,0.0,1.0,0.0,1.0,0.0,1.0,0.0,1.0,0.0,1.0,0.0,1.0,0.0,1.0,0.0,1.0,0.0,4Pn,4Pn_B_200108_200201_200301,1.0,4Pn_B_200108_200201_200301,1
"Poland, 05-520, Konstancin-Jeziorna, Źródlana, 10",52.08426284790039,21.11576271057129,346.5,BWC,05-520,Konstancin-Jeziorna,Źródlana,10.0,1.0,200108_200201_200301,co tydzień poniedziałek,1 raz w tygodniu,"1, 2, 3, 4",Pn,0.0,0.0,4.0,1.0,0.0,0.0,0.0,0.0,0.0,1.0,0.0,0.0,0.0,0.0,0.0,1.0,0.0,0.0,0.0,0.0,0.0,1.0,0.0,0.0,0.0,0.0,0.0,4Pn,4Pn_B_200108_200201_200301,1.0,4Pn_B_200108_200201_200301,1
"Zawodzie 18, 02-981 Warszawa",52.18342590332031,21.08544158935547,0.0,,,,,,,,,,,,,,,,,,,,,,,,,,,,,,,,,,,,,,,,,,,1
"Zawodzie 18, 02-981 Warszawa",52.18342590332031,21.08544158935547,0.0,,,,,,,,,,,,,,,,,,,,,,,,,,,,,,,,,,,,,,,,,,,2
"Poland, 02-972, Warszawa, Aleja Rzeczypospolitej, 33",52.16792678833008,21.06699562072754,495.0,BWA,02-972,Warszawa,Aleja Rzeczypospolitej,33.0,1.0,200108_200201_200301,poniedziałek czwartek sobota,3 razy w tygodniu,"1, 2, 3, 4","Pn, Cz, So",0.0,0.0,12.0,1.0,0.0,0.0,1.0,0.0,1.0,1.0,0.0,0.0,1.0,0.0,1.0,1.0,0.0,0.0,1.0,0.0,1.0,1.0,0.0,0.0,1.0,0.0,1.0,4Pn,4Pn_B_200108_200201_200301,0.0,4Pn_B_200108_200201_200301,2
"Poland, 02-777, Warszawa, Cynamonowa, 8",52.15114974975586,21.04751205444336,54.0,BRC,02-777,Warszawa,Cynamonowa,8.0,1.0,200108_200201_200301,4 poniedziałek,1 raz w miesiącu,4,Pn,0.0,0.0,1.0,0.0,0.0,0.0,0.0,0.0,0.0,0.0,0.0,0.0,0.0,0.0,0.0,0.0,0.0,0.0,0.0,0.0,0.0,1.0,0.0,0.0,0.0,0.0,0.0,4Pn,4Pn_B_200108_200201_200301,0.0,4Pn_B_200108_200201_200301,2
"Poland, 02-826, Warszawa, Poloneza, 27",52.1467399597168,21.006784439086914,108.0,BWA,02-826,Warszawa,Poloneza,27.0,1.0,200108_200201_200301,2 i 4 poniedziałek,2 razy w miesiącu,"2, 4",Pn,0.0,0.0,2.0,0.0,0.0,0.0,0.0,0.0,0.0,1.0,0.0,0.0,0.0,0.0,0.0,0.0,0.0,0.0,0.0,0.0,0.0,1.0,0.0,0.0,0.0,0.0,0.0,4Pn,4Pn_B_200108_200201_200301,0.0,4Pn_B_200108_200201_200301,2
"Poland, 02-830, Warszawa, Mazura, 14",52.14122009277344,21.007747650146484,495.0,BRB,02-830,Warszawa,Mazura,14.0,1.0,200108_200201_200301,co tydzień środa,1 raz w tygodniu,"1, 2, 3, 4",Sr,0.0,0.0,4.0,0.0,0.0,1.0,0.0,0.0,0.0,0.0,0.0,1.0,0.0,0.0,0.0,0.0,0.0,1.0,0.0,0.0,0.0,0.0,0.0,1.0,0.0,0.0,0.0,4Sr,4Sr_B_200108_200201_200301,1.0,4Pn_B_200108_200201_200301,2
"Poland, 02-863, Warszawa, Jeziorki, 14",52.12627029418945,21.001020431518555,495.0,BWB,02-863,Warszawa,Jeziorki,14.0,1.0,200108_200201_200301,co tydzień poniedziałek,1 raz w tygodniu,"1, 2, 3, 4",Pn,0.0,0.0,4.0,1.0,0.0,0.0,0.0,0.0,0.0,1.0,0.0,0.0,0.0,0.0,0.0,1.0,0.0,0.0,0.0,0.0,0.0,1.0,0.0,0.0,0.0,0.0,0.0,4Pn,4Pn_B_200108_200201_200301,0.0,4Pn_B_200108_200201_200301,2
"Poland, 05-500, Nowa Iwiczna, Niezapominajki, 32",52.092105865478516,21.000879287719727,108.0,BWC,05-500,Nowa Iwiczna,Niezapominajki,32.0,1.0,200108_200201_200301,co tydzień środa,1 raz w tygodniu,"1, 2, 3, 4",Sr,0.0,0.0,4.0,0.0,0.0,1.0,0.0,0.0,0.0,0.0,0.0,1.0,0.0,0.0,0.0,0.0,0.0,1.0,0.0,0.0,0.0,0.0,0.0,1.0,0.0,0.0,0.0,4Sr,4Sr_B_200108_200201_200301,1.0,4Pn_B_200108_200201_200301,2
"Poland, 05-500 , Piaseczno, Raszyńska, 18",52.09241485595703,21.014869689941406,54.0,BWC,05-500 ,Piaseczno,Raszyńska,18.0,1.0,200108_200201_200301,2 i 4 poniedziałek,2 razy w miesiącu,"2, 4",Pn,0.0,0.0,2.0,0.0,0.0,0.0,0.0,0.0,0.0,1.0,0.0,0.0,0.0,0.0,0.0,0.0,0.0,0.0,0.0,0.0,0.0,1.0,0.0,0.0,0.0,0.0,0.0,4Pn,4Pn_B_200108_200201_200301,0.0,4Pn_B_200108_200201_200301,2
"Poland, 05-500, Stara Iwiczna, Mleczarska, 14",52.08582305908203,21.013917922973633,108.0,BWC,05-500,Stara Iwiczna,Mleczarska,14.0,1.0,200108_200201_200301,2 i 4 środa,2 razy w miesiącu,"2, 4",Sr,0.0,0.0,2.0,0.0,0.0,0.0,0.0,0.0,0.0,0.0,0.0,1.0,0.0,0.0,0.0,0.0,0.0,0.0,0.0,0.0,0.0,0.0,0.0,1.0,0.0,0.0,0.0,4Sr,4Sr_B_200108_200201_200301,1.0,4Pn_B_200108_200201_200301,2
"Poland, 05-500 , Piaseczno, Elektroniczna, 24",52.08199691772461,21.032459259033203,495.0,BWC,05-500 ,Piaseczno,Elektroniczna,24.0,1.0,200108_200201_200301,co tydzień poniedziałek,1 raz w tygodniu,"1, 2, 3, 4",Pn,0.0,0.0,4.0,1.0,0.0,0.0,0.0,0.0,0.0,1.0,0.0,0.0,0.0,0.0,0.0,1.0,0.0,0.0,0.0,0.0,0.0,1.0,0.0,0.0,0.0,0.0,0.0,4Pn,4Pn_B_200108_200201_200301,0.0,4Pn_B_200108_200201_200301,2
"Poland, 05-500 , Piaseczno, Zgoda, 29",52.073787689208984,21.02964973449707,108.0,BWC,05-500 ,Piaseczno,Zgoda,29.0,1.0,200108_200201_200301,co tydzień poniedziałek,1 raz w tygodniu,"1, 2, 3, 4",Pn,0.0,0.0,4.0,1.0,0.0,0.0,0.0,0.0,0.0,1.0,0.0,0.0,0.0,0.0,0.0,1.0,0.0,0.0,0.0,0.0,0.0,1.0,0.0,0.0,0.0,0.0,0.0,4Pn,4Pn_B_200108_200201_200301,0.0,4Pn_B_200108_200201_200301,2
"Poland, 05-500 , Piaseczno, Żeglińskiego, 7",52.07903289794922,21.040626525878906,346.5,BWC,05-500 ,Piaseczno,Żeglińskiego,7.0,1.0,200108_200201_200301,co tydzień poniedziałek,1 raz w tygodniu,"1, 2, 3, 4",Pn,0.0,0.0,4.0,1.0,0.0,0.0,0.0,0.0,0.0,1.0,0.0,0.0,0.0,0.0,0.0,1.0,0.0,0.0,0.0,0.0,0.0,1.0,0.0,0.0,0.0,0.0,0.0,4Pn,4Pn_B_200108_200201_200301,0.0,4Pn_B_200108_200201_200301,2
"Poland, 05-500, Siedliska, Mostowa, 16",52.06081771850586,21.041736602783203,346.5,BWC,05-500,Siedliska,Mostowa,16.0,1.0,200108_200201_200301,2 i 4 poniedziałek,2 razy w miesiącu,"2, 4",Pn,0.0,0.0,2.0,0.0,0.0,0.0,0.0,0.0,0.0,1.0,0.0,0.0,0.0,0.0,0.0,0.0,0.0,0.0,0.0,0.0,0.0,1.0,0.0,0.0,0.0,0.0,0.0,4Pn,4Pn_B_200108_200201_200301,0.0,4Pn_B_200108_200201_200301,2
"Poland, 05-500, Jesówka, Dzikich Gęsi, 17",52.03923034667969,21.01608657836914,108.0,BWC,05-500,Jesówka,Dzikich Gęsi,17.0,1.0,200108_200201_200301,2 i 4 poniedziałek,2 razy w miesiącu,"2, 4",Pn,0.0,0.0,2.0,0.0,0.0,0.0,0.0,0.0,0.0,1.0,0.0,0.0,0.0,0.0,0.0,0.0,0.0,0.0,0.0,0.0,0.0,1.0,0.0,0.0,0.0,0.0,0.0,4Pn,4Pn_B_200108_200201_200301,0.0,4Pn_B_200108_200201_200301,2
"Poland, 05-500 , Piaseczno, Pod Bateriami, 18",52.053348541259766,21.003459930419922,108.0,BWB,05-500 ,Piaseczno,Pod Bateriami,18.0,1.0,200108_200201_200301,co tydzień poniedziałek,1 raz w tygodniu,"1, 2, 3, 4",Pn,0.0,0.0,4.0,1.0,0.0,0.0,0.0,0.0,0.0,1.0,0.0,0.0,0.0,0.0,0.0,1.0,0.0,0.0,0.0,0.0,0.0,1.0,0.0,0.0,0.0,0.0,0.0,4Pn,4Pn_B_200108_200201_200301,0.0,4Pn_B_200108_200201_200301,2
"Poland, 05-502, Gołków, Gołkowska, 19",52.04866027832031,20.988737106323242,54.0,BWC,05-502,Gołków,Gołkowska,19.0,1.0,200108_200201_200301,2 i 4 poniedziałek,2 razy w miesiącu,"2, 4",Pn,0.0,0.0,2.0,0.0,0.0,0.0,0.0,0.0,0.0,1.0,0.0,0.0,0.0,0.0,0.0,0.0,0.0,0.0,0.0,0.0,0.0,1.0,0.0,0.0,0.0,0.0,0.0,4Pn,4Pn_B_200108_200201_200301,0.0,4Pn_B_200108_200201_200301,2
"Poland, 05-500, Nowa Iwiczna, Kielecka, 25",52.08560562133789,20.99315071105957,495.0,BWC,05-500,Nowa Iwiczna,Kielecka,25.0,1.0,200108_200201_200301,co tydzień środa,1 raz w tygodniu,"1, 2, 3, 4",Sr,0.0,0.0,4.0,0.0,0.0,1.0,0.0,0.0,0.0,0.0,0.0,1.0,0.0,0.0,0.0,0.0,0.0,1.0,0.0,0.0,0.0,0.0,0.0,1.0,0.0,0.0,0.0,4Sr,4Sr_B_200108_200201_200301,1.0,4Pn_B_200108_200201_200301,2
"Poland, 05-506, Kolonia Lesznowola, Postępu, 21",52.081241607666016,20.967798233032227,495.0,BWC,05-506,Kolonia Lesznowola,Postępu,21.0,1.0,200108_200201_200301,co tydzień środa,1 raz w tygodniu,"1, 2, 3, 4",Sr,0.0,0.0,4.0,0.0,0.0,1.0,0.0,0.0,0.0,0.0,0.0,1.0,0.0,0.0,0.0,0.0,0.0,1.0,0.0,0.0,0.0,0.0,0.0,1.0,0.0,0.0,0.0,4Sr,4Sr_B_200108_200201_200301,1.0,4Pn_B_200108_200201_200301,2
"Poland, 05-504, Runów, Solidarności, 23",52.00580978393555,20.94256019592285,495.0,BWC,05-504,Runów,Solidarności,23.0,1.0,200108_200201_200301,co tydzień środa,1 raz w tygodniu,"1, 2, 3, 4",Sr,0.0,0.0,4.0,0.0,0.0,1.0,0.0,0.0,0.0,0.0,0.0,1.0,0.0,0.0,0.0,0.0,0.0,1.0,0.0,0.0,0.0,0.0,0.0,1.0,0.0,0.0,0.0,4Sr,4Sr_B_200108_200201_200301,1.0,4Pn_B_200108_200201_200301,2
"Poland, 05-555, Kotorydz, Piaseczyńska, 27",51.99333190917969,20.873607635498047,108.0,BHC,05-555,Kotorydz,Piaseczyńska,27.0,1.0,200108_200201_200301,2 i 4 środa,2 razy w miesiącu,"2, 4",Sr,0.0,0.0,2.0,0.0,0.0,0.0,0.0,0.0,0.0,0.0,0.0,1.0,0.0,0.0,0.0,0.0,0.0,0.0,0.0,0.0,0.0,0.0,0.0,1.0,0.0,0.0,0.0,4Sr,4Sr_B_200108_200201_200301,1.0,4Pn_B_200108_200201_200301,2
"Poland, 05-555, Wola Przypkowska, Piękna, 12",52.00935363769531,20.838773727416992,495.0,BHC,05-555,Wola Przypkowska,Piękna,12.0,1.0,200108_200201_200301,2 i 4 środa,2 razy w miesiącu,"2, 4",Sr,0.0,0.0,2.0,0.0,0.0,0.0,0.0,0.0,0.0,0.0,0.0,1.0,0.0,0.0,0.0,0.0,0.0,0.0,0.0,0.0,0.0,0.0,0.0,1.0,0.0,0.0,0.0,4Sr,4Sr_B_200108_200201_200301,1.0,4Pn_B_200108_200201_200301,2
"Poland, 96-300, Żyrardów, Bohaterów Warszawy, 28",52.0543098449707,20.450511932373047,297.0,BRB,96-300,Żyrardów,Bohaterów Warszawy,28.0,1.0,200108_200201_200301,2 i 4 poniedziałek,2 razy w miesiącu,"2, 4",Pn,0.0,0.0,2.0,0.0,0.0,0.0,0.0,0.0,0.0,1.0,0.0,0.0,0.0,0.0,0.0,0.0,0.0,0.0,0.0,0.0,0.0,1.0,0.0,0.0,0.0,0.0,0.0,4Pn,4Pn_B_200108_200201_200301,0.0,4Pn_B_200108_200201_200301,2
"Poland, 96-300, Żyrardów, Piotra Wysockiego, 7",52.056827545166016,20.445220947265625,54.0,BHC,96-300,Żyrardów,Piotra Wysockiego,7.0,1.0,200108_200201_200301,2 i 4 poniedziałek,2 razy w miesiącu,"2, 4",Pn,0.0,0.0,2.0,0.0,0.0,0.0,0.0,0.0,0.0,1.0,0.0,0.0,0.0,0.0,0.0,0.0,0.0,0.0,0.0,0.0,0.0,1.0,0.0,0.0,0.0,0.0,0.0,4Pn,4Pn_B_200108_200201_200301,0.0,4Pn_B_200108_200201_200301,2
"Poland, 96-300, Żyrardów, Józefa Mireckiego, 6",52.0572395324707,20.445377349853516,54.0,BRC,96-300,Żyrardów,Józefa Mireckiego,6.0,1.0,200108_200201_200301,4 poniedziałek,1 raz w miesiącu,4,Pn,0.0,0.0,1.0,0.0,0.0,0.0,0.0,0.0,0.0,0.0,0.0,0.0,0.0,0.0,0.0,0.0,0.0,0.0,0.0,0.0,0.0,1.0,0.0,0.0,0.0,0.0,0.0,4Pn,4Pn_B_200108_200201_200301,0.0,4Pn_B_200108_200201_200301,2
"Poland, 96-300, Żyrardów, Mickiewicza, 22",52.04850769042969,20.446182250976562,495.0,BRA,96-300,Żyrardów,Mickiewicza,22.0,1.0,200108_200201_200301,co tydzień poniedziałek,1 raz w tygodniu,"1, 2, 3, 4",Pn,0.0,0.0,4.0,1.0,0.0,0.0,0.0,0.0,0.0,1.0,0.0,0.0,0.0,0.0,0.0,1.0,0.0,0.0,0.0,0.0,0.0,1.0,0.0,0.0,0.0,0.0,0.0,4Pn,4Pn_B_200108_200201_200301,0.0,4Pn_B_200108_200201_200301,2
"Poland, 96-300, Żyrardów, Reymonta, 14",52.04656219482422,20.43977165222168,495.0,BHA,96-300,Żyrardów,Reymonta,14.0,1.0,200108_200201_200301,poniedziałek piątek,2 razy w tygodniu,"1, 2, 3, 4","Pn, Pt",0.0,0.0,8.0,1.0,0.0,0.0,0.0,1.0,0.0,1.0,0.0,0.0,0.0,1.0,0.0,1.0,0.0,0.0,0.0,1.0,0.0,1.0,0.0,0.0,0.0,1.0,0.0,4Pn,4Pn_B_200108_200201_200301,0.0,4Pn_B_200108_200201_200301,2
"Poland, 96-300, Żyrardów, Ludwika Waryńskiego, 22",52.06078338623047,20.440324783325195,495.0,BRC,96-300,Żyrardów,Ludwika Waryńskiego,22.0,1.0,200108_200201_200301,4 poniedziałek,1 raz w miesiącu,4,Pn,0.0,0.0,1.0,0.0,0.0,0.0,0.0,0.0,0.0,0.0,0.0,0.0,0.0,0.0,0.0,0.0,0.0,0.0,0.0,0.0,0.0,1.0,0.0,0.0,0.0,0.0,0.0,4Pn,4Pn_B_200108_200201_200301,0.0,4Pn_B_200108_200201_200301,2
"Poland, 96-300, Żyrardów, Marii Nietrzebki, 26",52.07086181640625,20.434465408325195,108.0,BRC,96-300,Żyrardów,Marii Nietrzebki,26.0,1.0,200108_200201_200301,2 i 4 poniedziałek,2 razy w miesiącu,"2, 4",Pn,0.0,0.0,2.0,0.0,0.0,0.0,0.0,0.0,0.0,1.0,0.0,0.0,0.0,0.0,0.0,0.0,0.0,0.0,0.0,0.0,0.0,1.0,0.0,0.0,0.0,0.0,0.0,4Pn,4Pn_B_200108_200201_200301,0.0,4Pn_B_200108_200201_200301,2
"Poland, 05-825, Janinów, Norweska, 17",52.07860565185547,20.61048126220703,495.0,BRA,05-825,Janinów,Norweska,17.0,1.0,200108_200201_200301,poniedziałek czwartek,2 razy w tygodniu,"1, 2, 3, 4","Pn, Cz",0.0,0.0,8.0,1.0,0.0,0.0,1.0,0.0,0.0,1.0,0.0,0.0,1.0,0.0,0.0,1.0,0.0,0.0,1.0,0.0,0.0,1.0,0.0,0.0,1.0,0.0,0.0,4Pn,4Pn_B_200108_200201_200301,0.0,4Pn_B_200108_200201_200301,2
"Poland, 05-825, Urszulin, Legionistów, 33",52.07223892211914,20.72146224975586,108.0,BRA,05-825,Urszulin,Legionistów,33.0,1.0,200108_200201_200301,poniedziałek środa piątek,3 razy w tygodniu,"1, 2, 3, 4","Pn, Sr, Pt",0.0,0.0,12.0,1.0,0.0,1.0,0.0,1.0,0.0,1.0,0.0,1.0,0.0,1.0,0.0,1.0,0.0,1.0,0.0,1.0,0.0,1.0,0.0,1.0,0.0,1.0,0.0,4Pn,4Pn_B_200108_200201_200301,0.0,4Pn_B_200108_200201_200301,2
"Poland, 05-830, Rusiec, Osiedlowa, 6",52.06547927856445,20.800451278686523,495.0,BHC,05-830,Rusiec,Osiedlowa,6.0,1.0,200108_200201_200301,co tydzień poniedziałek,1 raz w tygodniu,"1, 2, 3, 4",Pn,0.0,0.0,4.0,1.0,0.0,0.0,0.0,0.0,0.0,1.0,0.0,0.0,0.0,0.0,0.0,1.0,0.0,0.0,0.0,0.0,0.0,1.0,0.0,0.0,0.0,0.0,0.0,4Pn,4Pn_B_200108_200201_200301,0.0,4Pn_B_200108_200201_200301,2
"Poland, 05-830, Kajetany, Klonowa, 9",52.08700942993164,20.816242218017578,3150.0,BHB,05-830,Kajetany,Klonowa,9.0,1.0,200108_200201_200301,2 i 4 poniedziałek,2 razy w miesiącu,"2, 4",Pn,0.0,0.0,2.0,0.0,0.0,0.0,0.0,0.0,0.0,1.0,0.0,0.0,0.0,0.0,0.0,0.0,0.0,0.0,0.0,0.0,0.0,1.0,0.0,0.0,0.0,0.0,0.0,4Pn,4Pn_B_200108_200201_200301,0.0,4Pn_B_200108_200201_200301,2
"Poland, 05-830, Strzeniówka, Dzikiej Róży, 6",52.11899948120117,20.798200607299805,108.0,BHC,05-830,Strzeniówka,Dzikiej Róży,6.0,1.0,200108_200201_200301,2 i 4 środa,2 razy w miesiącu,"2, 4",Sr,0.0,0.0,2.0,0.0,0.0,0.0,0.0,0.0,0.0,0.0,0.0,1.0,0.0,0.0,0.0,0.0,0.0,0.0,0.0,0.0,0.0,0.0,0.0,1.0,0.0,0.0,0.0,4Sr,4Sr_B_200108_200201_200301,1.0,4Pn_B_200108_200201_200301,2
"Poland, 05-090, Janki, Wichrowa, 26",52.131561279296875,20.885663986206055,54.0,BHC,05-090,Janki,Wichrowa,26.0,1.0,200108_200201_200301,2 i 4 wtorek,2 razy w miesiącu,"2, 4",Wt,0.0,0.0,2.0,0.0,0.0,0.0,0.0,0.0,0.0,0.0,1.0,0.0,0.0,0.0,0.0,0.0,0.0,0.0,0.0,0.0,0.0,0.0,1.0,0.0,0.0,0.0,0.0,4Wt,4Wt_B_200108_200201_200301,1.0,4Pn_B_200108_200201_200301,2
"Poland, 05-090, Wypędy, Kwietniowa, 10",52.13740539550781,20.88597869873047,495.0,BHC,05-090,Wypędy,Kwietniowa,10.0,1.0,200108_200201_200301,2 i 4 wtorek,2 razy w miesiącu,"2, 4",Wt,0.0,0.0,2.0,0.0,0.0,0.0,0.0,0.0,0.0,0.0,1.0,0.0,0.0,0.0,0.0,0.0,0.0,0.0,0.0,0.0,0.0,0.0,1.0,0.0,0.0,0.0,0.0,4Wt,4Wt_B_200108_200201_200301,1.0,4Pn_B_200108_200201_200301,2
"Poland, 05-090, Wypędy, Zdrojowa, 19",52.15205764770508,20.879743576049805,495.0,BHC,05-090,Wypędy,Zdrojowa,19.0,1.0,200108_200201_200301,2 i 4 wtorek,2 razy w miesiącu,"2, 4",Wt,0.0,0.0,2.0,0.0,0.0,0.0,0.0,0.0,0.0,0.0,1.0,0.0,0.0,0.0,0.0,0.0,0.0,0.0,0.0,0.0,0.0,0.0,1.0,0.0,0.0,0.0,0.0,4Wt,4Wt_B_200108_200201_200301,1.0,4Pn_B_200108_200201_200301,2
"Poland, 05-090, Raszyn, Puchały, Centralna, 23",52.14999008178711,20.89983558654785,495.0,BWC,05-090,Raszyn,"Puchały, Centralna",23.0,1.0,200108_200201_200301,2 i 4 wtorek,2 razy w miesiącu,"2, 4",Wt,0.0,0.0,2.0,0.0,0.0,0.0,0.0,0.0,0.0,0.0,1.0,0.0,0.0,0.0,0.0,0.0,0.0,0.0,0.0,0.0,0.0,0.0,1.0,0.0,0.0,0.0,0.0,4Wt,4Wt_B_200108_200201_200301,1.0,4Pn_B_200108_200201_200301,2
"Poland, 05-090, Janki, Godebskiego, 10",52.12995147705078,20.902057647705078,495.0,BHC,05-090,Janki,Godebskiego,10.0,1.0,200108_200201_200301,2 i 4 wtorek,2 razy w miesiącu,"2, 4",Wt,0.0,0.0,2.0,0.0,0.0,0.0,0.0,0.0,0.0,0.0,1.0,0.0,0.0,0.0,0.0,0.0,0.0,0.0,0.0,0.0,0.0,0.0,1.0,0.0,0.0,0.0,0.0,4Wt,4Wt_B_200108_200201_200301,1.0,4Pn_B_200108_200201_200301,2
"Poland, 05-090, Sękocin Nowy, Leszczynowa, 18",52.123435974121094,20.899450302124023,108.0,BHC,05-090,Sękocin Nowy,Leszczynowa,18.0,1.0,200108_200201_200301,co tydzień wtorek,1 raz w tygodniu,"1, 2, 3, 4",Wt,0.0,0.0,4.0,0.0,1.0,0.0,0.0,0.0,0.0,0.0,1.0,0.0,0.0,0.0,0.0,0.0,1.0,0.0,0.0,0.0,0.0,0.0,1.0,0.0,0.0,0.0,0.0,4Wt,4Wt_B_200108_200201_200301,1.0,4Pn_B_200108_200201_200301,2
"Poland, 05-552, Łazy, Muzyczna, 12",52.072853088378906,20.892820358276367,54.0,BWC,05-552,Łazy,Muzyczna,12.0,1.0,200108_200201_200301,2 i 4 środa,2 razy w miesiącu,"2, 4",Sr,0.0,0.0,2.0,0.0,0.0,0.0,0.0,0.0,0.0,0.0,0.0,1.0,0.0,0.0,0.0,0.0,0.0,0.0,0.0,0.0,0.0,0.0,0.0,1.0,0.0,0.0,0.0,4Sr,4Sr_B_200108_200201_200301,1.0,4Pn_B_200108_200201_200301,2
"Poland, 05-506, Magdalenka, Modrzewiowa, 29",52.0967903137207,20.90546226501465,54.0,BWC,05-506,Magdalenka,Modrzewiowa,29.0,1.0,200108_200201_200301,co tydzień środa,1 raz w tygodniu,"1, 2, 3, 4",Sr,0.0,0.0,4.0,0.0,0.0,1.0,0.0,0.0,0.0,0.0,0.0,1.0,0.0,0.0,0.0,0.0,0.0,1.0,0.0,0.0,0.0,0.0,0.0,1.0,0.0,0.0,0.0,4Sr,4Sr_B_200108_200201_200301,1.0,4Pn_B_200108_200201_200301,2
"Poland, 05-090, Podolszyn Nowy, Wygody, 29",52.119895935058594,20.930206298828125,108.0,BWC,05-090,Podolszyn Nowy,Wygody,29.0,1.0,200108_200201_200301,4 wtorek,1 raz w miesiącu,4,Wt,0.0,0.0,1.0,0.0,0.0,0.0,0.0,0.0,0.0,0.0,0.0,0.0,0.0,0.0,0.0,0.0,0.0,0.0,0.0,0.0,0.0,0.0,1.0,0.0,0.0,0.0,0.0,4Wt,4Wt_B_200108_200201_200301,1.0,4Pn_B_200108_200201_200301,2
"Poland, 05-090, Falenty Nowe, Rozbrat, 25",52.137088775634766,20.92705726623535,54.0,BWC,05-090,Falenty Nowe,Rozbrat,25.0,1.0,200108_200201_200301,2 i 4 wtorek,2 razy w miesiącu,"2, 4",Wt,0.0,0.0,2.0,0.0,0.0,0.0,0.0,0.0,0.0,0.0,1.0,0.0,0.0,0.0,0.0,0.0,0.0,0.0,0.0,0.0,0.0,0.0,1.0,0.0,0.0,0.0,0.0,4Wt,4Wt_B_200108_200201_200301,1.0,4Pn_B_200108_200201_200301,2
"Poland, 05-090, Falenty Nowe, Willowa, 8",52.13475036621094,20.934640884399414,108.0,BWC,05-090,Falenty Nowe,Willowa,8.0,1.0,200108_200201_200301,2 i 4 wtorek,2 razy w miesiącu,"2, 4",Wt,0.0,0.0,2.0,0.0,0.0,0.0,0.0,0.0,0.0,0.0,1.0,0.0,0.0,0.0,0.0,0.0,0.0,0.0,0.0,0.0,0.0,0.0,1.0,0.0,0.0,0.0,0.0,4Wt,4Wt_B_200108_200201_200301,1.0,4Pn_B_200108_200201_200301,2
"Poland, 05-090, Raszyn, Drukarska, 15",52.146461486816406,20.95037078857422,495.0,BWC,05-090,Raszyn,Drukarska,15.0,1.0,200108_200201_200301,2 i 4 wtorek,2 razy w miesiącu,"2, 4",Wt,0.0,0.0,2.0,0.0,0.0,0.0,0.0,0.0,0.0,0.0,1.0,0.0,0.0,0.0,0.0,0.0,0.0,0.0,0.0,0.0,0.0,0.0,1.0,0.0,0.0,0.0,0.0,4Wt,4Wt_B_200108_200201_200301,1.0,4Pn_B_200108_200201_200301,2
"Poland, 02-196 , Warszawa, Popas, 28",52.16094970703125,20.9383602142334,495.0,BWC,02-196 ,Warszawa,Popas,28.0,1.0,200108_200201_200301,2 i 4 wtorek,2 razy w miesiącu,"2, 4",Wt,0.0,0.0,2.0,0.0,0.0,0.0,0.0,0.0,0.0,0.0,1.0,0.0,0.0,0.0,0.0,0.0,0.0,0.0,0.0,0.0,0.0,0.0,1.0,0.0,0.0,0.0,0.0,4Wt,4Wt_B_200108_200201_200301,1.0,4Pn_B_200108_200201_200301,2
"Poland, , Raszyn, Projektowana, 27",52.16353225708008,20.922348022460938,54.0,BWC,,Raszyn,Projektowana,27.0,1.0,200108_200201_200301,co tydzień wtorek,1 raz w tygodniu,"1, 2, 3, 4",Wt,0.0,0.0,4.0,0.0,1.0,0.0,0.0,0.0,0.0,0.0,1.0,0.0,0.0,0.0,0.0,0.0,1.0,0.0,0.0,0.0,0.0,0.0,1.0,0.0,0.0,0.0,0.0,4Wt,4Wt_B_200108_200201_200301,1.0,4Pn_B_200108_200201_200301,2
"Poland, 02-231, Warszawa, Jutrzenki, 7",52.17775344848633,20.918781280517578,495.0,BWB,02-231,Warszawa,Jutrzenki,7.0,1.0,200108_200201_200301,co tydzień wtorek,1 raz w tygodniu,"1, 2, 3, 4",Wt,0.0,0.0,4.0,0.0,1.0,0.0,0.0,0.0,0.0,0.0,1.0,0.0,0.0,0.0,0.0,0.0,1.0,0.0,0.0,0.0,0.0,0.0,1.0,0.0,0.0,0.0,0.0,4Wt,4Wt_B_200108_200201_200301,1.0,4Pn_B_200108_200201_200301,2
"Poland, 02-238, Warszawa, Modularna, 11",52.18501281738281,20.937429428100586,495.0,BWC,02-238,Warszawa,Modularna,11.0,1.0,200108_200201_200301,co tydzień wtorek,1 raz w tygodniu,"1, 2, 3, 4",Wt,0.0,0.0,4.0,0.0,1.0,0.0,0.0,0.0,0.0,0.0,1.0,0.0,0.0,0.0,0.0,0.0,1.0,0.0,0.0,0.0,0.0,0.0,1.0,0.0,0.0,0.0,0.0,4Wt,4Wt_B_200108_200201_200301,1.0,4Pn_B_200108_200201_200301,2
"Poland, 02-149, Warszawa, Hynka, 32",52.18730163574219,20.96706199645996,108.0,BRB,02-149,Warszawa,Hynka,32.0,1.0,200108_200201_200301,co tydzień wtorek,1 raz w tygodniu,"1, 2, 3, 4",Wt,0.0,0.0,4.0,0.0,1.0,0.0,0.0,0.0,0.0,0.0,1.0,0.0,0.0,0.0,0.0,0.0,1.0,0.0,0.0,0.0,0.0,0.0,1.0,0.0,0.0,0.0,0.0,4Wt,4Wt_B_200108_200201_200301,1.0,4Pn_B_200108_200201_200301,2
"Poland, 02-384, Warszawa, Włodarzewska, 27",52.20206069946289,20.956127166748047,495.0,BWA,02-384,Warszawa,Włodarzewska,27.0,1.0,200108_200201_200301,poniedziałek czwartek sobota,3 razy w tygodniu,"1, 2, 3, 4","Pn, Cz, So",0.0,0.0,12.0,1.0,0.0,0.0,1.0,0.0,1.0,1.0,0.0,0.0,1.0,0.0,1.0,1.0,0.0,0.0,1.0,0.0,1.0,1.0,0.0,0.0,1.0,0.0,1.0,4Pn,4Pn_B_200108_200201_200301,0.0,4Pn_B_200108_200201_200301,2
"Poland, 01-377, Warszawa, Połczyńska, 11",52.22207260131836,20.924955368041992,495.0,BWA,01-377,Warszawa,Połczyńska,11.0,1.0,200108_200201_200301,poniedziałek czwartek,2 razy w tygodniu,"1, 2, 3, 4","Pn, Cz",0.0,0.0,8.0,1.0,0.0,0.0,1.0,0.0,0.0,1.0,0.0,0.0,1.0,0.0,0.0,1.0,0.0,0.0,1.0,0.0,0.0,1.0,0.0,0.0,1.0,0.0,0.0,4Pn,4Pn_B_200108_200201_200301,0.0,4Pn_B_200108_200201_200301,2
"Poland, 01-267, Warszawa, Jana Kazimierza, 18",52.22532272338867,20.946041107177734,495.0,BWA,01-267,Warszawa,Jana Kazimierza,18.0,1.0,200108_200201_200301,poniedziałek środa piątek,3 razy w tygodniu,"1, 2, 3, 4","Pn, Sr, Pt",0.0,0.0,12.0,1.0,0.0,1.0,0.0,1.0,0.0,1.0,0.0,1.0,0.0,1.0,0.0,1.0,0.0,1.0,0.0,1.0,0.0,1.0,0.0,1.0,0.0,1.0,0.0,4Pn,4Pn_B_200108_200201_200301,0.0,4Pn_B_200108_200201_200301,2
"Poland, 01-747, Warszawa, Powązkowska, 17",52.25853729248047,20.962650299072266,495.0,BWA,01-747,Warszawa,Powązkowska,17.0,1.0,200108_200201_200301,poniedziałek czwartek sobota,3 razy w tygodniu,"1, 2, 3, 4","Pn, Cz, So",0.0,0.0,12.0,1.0,0.0,0.0,1.0,0.0,1.0,1.0,0.0,0.0,1.0,0.0,1.0,1.0,0.0,0.0,1.0,0.0,1.0,1.0,0.0,0.0,1.0,0.0,1.0,4Pn,4Pn_B_200108_200201_200301,0.0,4Pn_B_200108_200201_200301,2
"Poland, 03-242, Warszawa, Kondratowicza, 24",52.295021057128906,21.03778076171875,495.0,BWA,03-242,Warszawa,Kondratowicza,24.0,1.0,200108_200201_200301,co tydzień poniedziałek,1 raz w tygodniu,"1, 2, 3, 4",Pn,0.0,0.0,4.0,1.0,0.0,0.0,0.0,0.0,0.0,1.0,0.0,0.0,0.0,0.0,0.0,1.0,0.0,0.0,0.0,0.0,0.0,1.0,0.0,0.0,0.0,0.0,0.0,4Pn,4Pn_B_200108_200201_200301,0.0,4Pn_B_200108_200201_200301,2
"Poland, 02-497, Warszawa, AL.Jerozolimskie, 8",52.232627868652344,21.023414611816406,495.0,BWA,02-497,Warszawa,AL.Jerozolimskie,8.0,1.0,200108_200201_200301,poniedziałek wtorek środa czwartek piątek,5 razy w tygodniu,"1, 2, 3, 4","Pn, Wt, Sr, Cz, Pt",0.0,0.0,20.0,1.0,1.0,1.0,1.0,1.0,0.0,1.0,1.0,1.0,1.0,1.0,0.0,1.0,1.0,1.0,1.0,1.0,0.0,1.0,1.0,1.0,1.0,1.0,0.0,4Pn,4Pn_B_200108_200201_200301,0.0,4Pn_B_200108_200201_200301,2
"Poland, 00-021, Warszawa, Chmielna, 10",52.23334884643555,21.01766014099121,495.0,BWB,00-021,Warszawa,Chmielna,10.0,1.0,200108_200201_200301,poniedziałek środa piątek,3 razy w tygodniu,"1, 2, 3, 4","Pn, Sr, Pt",0.0,0.0,12.0,1.0,0.0,1.0,0.0,1.0,0.0,1.0,0.0,1.0,0.0,1.0,0.0,1.0,0.0,1.0,0.0,1.0,0.0,1.0,0.0,1.0,0.0,1.0,0.0,4Pn,4Pn_B_200108_200201_200301,0.0,4Pn_B_200108_200201_200301,2
"Poland, 01-014, Warszawa, Żytnia, 13",52.23929214477539,20.98176383972168,495.0,BWA,01-014,Warszawa,Żytnia,13.0,1.0,200108_200201_200301,poniedziałek wtorek czwartek piątek,4 razy w tygodniu,"1, 2, 3, 4","Pn, Wt, Cz, Pt",0.0,0.0,16.0,1.0,1.0,0.0,1.0,1.0,0.0,1.0,1.0,0.0,1.0,1.0,0.0,1.0,1.0,0.0,1.0,1.0,0.0,1.0,1.0,0.0,1.0,1.0,0.0,4Pn,4Pn_B_200108_200201_200301,0.0,4Pn_B_200108_200201_200301,2
"Poland, 02-025, Warszawa, Plac Zawiszy, 5",52.224788665771484,20.988697052001953,54.0,BWA,02-025,Warszawa,Plac Zawiszy,5.0,2.0,200108_200201_200301, P - - C - - - 1 2 3 4 5 O,2 razy w tygodniu,"1, 2, 3, 4","Pn, Cz",0.0,0.0,8.0,1.0,0.0,0.0,1.0,0.0,0.0,1.0,0.0,0.0,1.0,0.0,0.0,1.0,0.0,0.0,1.0,0.0,0.0,1.0,0.0,0.0,1.0,0.0,0.0,4Pn,4Pn_B_200108_200201_200301,0.0,4Pn_B_200108_200201_200301,2
"Poland, 02-634, Warszawa, Racławicka, 18",52.19676208496094,20.992538452148438,108.0,BWC,02-634,Warszawa,Racławicka,18.0,1.0,200108_200201_200301,poniedziałek czwartek,2 razy w tygodniu,"1, 2, 3, 4","Pn, Cz",0.0,0.0,8.0,1.0,0.0,0.0,1.0,0.0,0.0,1.0,0.0,0.0,1.0,0.0,0.0,1.0,0.0,0.0,1.0,0.0,0.0,1.0,0.0,0.0,1.0,0.0,0.0,4Pn,4Pn_B_200108_200201_200301,0.0,4Pn_B_200108_200201_200301,2
"Poland, 02-685, Warszawa, Rodziny Hiszpańskich, 13",52.18061065673828,21.006000518798828,54.0,BWB,02-685,Warszawa,Rodziny Hiszpańskich,13.0,1.0,200108_200201_200301,co tydzień poniedziałek,1 raz w tygodniu,"1, 2, 3, 4",Pn,0.0,0.0,4.0,1.0,0.0,0.0,0.0,0.0,0.0,1.0,0.0,0.0,0.0,0.0,0.0,1.0,0.0,0.0,0.0,0.0,0.0,1.0,0.0,0.0,0.0,0.0,0.0,4Pn,4Pn_B_200108_200201_200301,0.0,4Pn_B_200108_200201_200301,2
"Zawodzie 18, 02-981 Warszawa",52.18342590332031,21.08544158935547,0.0,,,,,,,,,,,,,,,,,,,,,,,,,,,,,,,,,,,,,,,,,,,2
