full address,latitude,longitude,Pojemnosc,Rodzaj klienta,Kod pocz.,Miasto,Ulica,Nr budynku,Ilość poj.,Kod odpadu,Cykl,Harmonogram,Numer tygodnia,Dni tygodnia,Okres_start,Okres_stop,Suma kontrolna,1Pn,1Wt,1Sr,1Cz,1Pt,1So,2Pn,2Wt,2Sr,2Cz,2Pt,2So,3Pn,3Wt,3Sr,3Cz,3Pt,3So,4Pn,4Wt,4Sr,4Cz,4Pt,4So,Częstotliwość,groups,route
"Zawodzie 18, 02-981 Warszawa",52.183426,21.085442,0.0,,,,,,,,,,,,,,,,,,,,,,,,,,,,,,,,,,,,,,,,,1
"Poland, 02-691, Warszawa, Obrzeżna, 24",52.174713,21.001284,120.0,BWB,02-691,Warszawa,Obrzeżna,24.0,1.0,150107_200102,co tydzień środa,1 raz w tygodniu,"1, 2, 3, 4",Sr,0.0,0.0,4.0,0.0,0.0,1.0,0.0,0.0,0.0,0.0,0.0,1.0,0.0,0.0,0.0,0.0,0.0,1.0,0.0,0.0,0.0,0.0,0.0,1.0,0.0,0.0,0.0,1Sr,1Sr_B_150107_200102,1
"Poland, 05-806 , Komorów, Jana Matejki, 11",52.14568,20.81107,550.0,BHC,05-806 ,Komorów,Jana Matejki,11.0,1.0,150107_200102,1 i 3 środa,2 razy w miesiącu,"1, 3",Sr,0.0,0.0,2.0,0.0,0.0,1.0,0.0,0.0,0.0,0.0,0.0,0.0,0.0,0.0,0.0,0.0,0.0,1.0,0.0,0.0,0.0,0.0,0.0,0.0,0.0,0.0,0.0,1Sr,1Sr_B_150107_200102,1
"Poland, 02-496, Warszawa, Orłów Piastowskich, 23",52.201187,20.86803,60.0,BWC,02-496,Warszawa,Orłów Piastowskich,23.0,1.0,150107_200102,1 i 3 środa,2 razy w miesiącu,"1, 3",Sr,0.0,0.0,2.0,0.0,0.0,1.0,0.0,0.0,0.0,0.0,0.0,0.0,0.0,0.0,0.0,0.0,0.0,1.0,0.0,0.0,0.0,0.0,0.0,0.0,0.0,0.0,0.0,1Sr,1Sr_B_150107_200102,1
"Poland, 00-791, Warszawa, Słoneczna, 16",52.20784,21.025776,120.0,BWB,00-791,Warszawa,Słoneczna,16.0,1.0,150107_200102,1 i 3 środa,2 razy w miesiącu,"1, 3",Sr,0.0,0.0,2.0,0.0,0.0,1.0,0.0,0.0,0.0,0.0,0.0,0.0,0.0,0.0,0.0,0.0,0.0,1.0,0.0,0.0,0.0,0.0,0.0,0.0,0.0,0.0,0.0,1Sr,1Sr_B_150107_200102,1
"Poland, 00-739, Warszawa, Stępińska, 29",52.20619,21.037256,60.0,BWB,00-739,Warszawa,Stępińska,29.0,1.0,150107_200102,co tydzień środa,1 raz w tygodniu,"1, 2, 3, 4",Sr,0.0,0.0,4.0,0.0,0.0,1.0,0.0,0.0,0.0,0.0,0.0,1.0,0.0,0.0,0.0,0.0,0.0,1.0,0.0,0.0,0.0,0.0,0.0,1.0,0.0,0.0,0.0,1Sr,1Sr_B_150107_200102,1
"Poland, 00-722, Warszawa, Podchorążych, 28",52.208553,21.044947,60.0,BWB,00-722,Warszawa,Podchorążych,28.0,1.0,150107_200102,co tydzień środa,1 raz w tygodniu,"1, 2, 3, 4",Sr,0.0,0.0,4.0,0.0,0.0,1.0,0.0,0.0,0.0,0.0,0.0,1.0,0.0,0.0,0.0,0.0,0.0,1.0,0.0,0.0,0.0,0.0,0.0,1.0,0.0,0.0,0.0,1Sr,1Sr_B_150107_200102,1
"Zawodzie 18, 02-981 Warszawa",52.183426,21.085442,0.0,,,,,,,,,,,,,,,,,,,,,,,,,,,,,,,,,,,,,,,,,1
