full address,latitude,longitude,Pojemnosc,Rodzaj klienta,Kod pocz.,Miasto,Ulica,Nr budynku,Ilość poj.,Kod odpadu,Cykl,Harmonogram,Numer tygodnia,Dni tygodnia,Okres_start,Okres_stop,Suma kontrolna,1Pn,1Wt,1Sr,1Cz,1Pt,1So,2Pn,2Wt,2Sr,2Cz,2Pt,2So,3Pn,3Wt,3Sr,3Cz,3Pt,3So,4Pn,4Wt,4Sr,4Cz,4Pt,4So,Częstotliwość,groups,outliner,new_frequency,route
"Zawodzie 18, 02-981 Warszawa",52.183426,21.085442,0.0,,,,,,,,,,,,,,,,,,,,,,,,,,,,,,,,,,,,,,,,,,,1
"Poland, 05-816, Michałowice, Jesionowa, 26",52.177277,20.881567,495.0,BHA,05-816,Michałowice,Jesionowa,26.0,1.0,200108_200201_200301,co tydzień piątek,1 raz w tygodniu,"1, 2, 3, 4",Pt,0.0,0.0,4.0,0.0,0.0,0.0,0.0,1.0,0.0,0.0,0.0,0.0,0.0,1.0,0.0,0.0,0.0,0.0,0.0,1.0,0.0,0.0,0.0,0.0,0.0,1.0,0.0,2Pt,2Pt_B_200108_200201_200301,0.0,2Cz_B_200108_200201_200301,1
"Poland, 01-014, Warszawa, Żytnia, 13",52.239292,20.981764,495.0,BWA,01-014,Warszawa,Żytnia,13.0,1.0,200108_200201_200301,poniedziałek wtorek czwartek piątek,4 razy w tygodniu,"1, 2, 3, 4","Pn, Wt, Cz, Pt",0.0,0.0,16.0,1.0,1.0,0.0,1.0,1.0,0.0,1.0,1.0,0.0,1.0,1.0,0.0,1.0,1.0,0.0,1.0,1.0,0.0,1.0,1.0,0.0,1.0,1.0,0.0,2Cz,2Cz_B_200108_200201_200301,1.0,2Cz_B_200108_200201_200301,1
"Poland, 02-025, Warszawa, Plac Zawiszy, 5",52.22479,20.988697,54.0,BWA,02-025,Warszawa,Plac Zawiszy,5.0,2.0,200108_200201_200301, P - - C - - - 1 2 3 4 5 O,2 razy w tygodniu,"1, 2, 3, 4","Pn, Cz",0.0,0.0,8.0,1.0,0.0,0.0,1.0,0.0,0.0,1.0,0.0,0.0,1.0,0.0,0.0,1.0,0.0,0.0,1.0,0.0,0.0,1.0,0.0,0.0,1.0,0.0,0.0,2Cz,2Cz_B_200108_200201_200301,1.0,2Cz_B_200108_200201_200301,1
"Poland, 05-840, Brwinów, Józefa Ignacego Kraszewskiego, 20",52.135788,20.72227,495.0,BHB,05-840,Brwinów,Józefa Ignacego Kraszewskiego,20.0,1.0,200108_200201_200301,co tydzień czwartek,1 raz w tygodniu,"1, 2, 3, 4",Cz,0.0,0.0,4.0,0.0,0.0,0.0,1.0,0.0,0.0,0.0,0.0,0.0,1.0,0.0,0.0,0.0,0.0,0.0,1.0,0.0,0.0,0.0,0.0,0.0,1.0,0.0,0.0,2Cz,2Cz_B_200108_200201_200301,1.0,2Cz_B_200108_200201_200301,1
"Poland, 05-825, Kozerki, Gen. Orlicz-Dreszera, 19",52.09534,20.59622,495.0,BRB,05-825,Kozerki,Gen. Orlicz-Dreszera,19.0,1.0,200108_200201_200301,co tydzień czwartek,1 raz w tygodniu,"1, 2, 3, 4",Cz,0.0,0.0,4.0,0.0,0.0,0.0,1.0,0.0,0.0,0.0,0.0,0.0,1.0,0.0,0.0,0.0,0.0,0.0,1.0,0.0,0.0,0.0,0.0,0.0,1.0,0.0,0.0,2Cz,2Cz_B_200108_200201_200301,1.0,2Cz_B_200108_200201_200301,1
"Poland, 05-840, Brwinów, Świętego Tomasza, 18",52.164192,20.761438,1125.0,BHA,05-840,Brwinów,Świętego Tomasza,18.0,1.0,200108_200201_200301,2 i 4 czwartek,2 razy w miesiącu,"2, 4",Cz,0.0,0.0,2.0,0.0,0.0,0.0,0.0,0.0,0.0,0.0,0.0,0.0,1.0,0.0,0.0,0.0,0.0,0.0,0.0,0.0,0.0,0.0,0.0,0.0,1.0,0.0,0.0,2Cz,2Cz_B_200108_200201_200301,1.0,2Cz_B_200108_200201_200301,1
"Poland, 05-807, Podkowa Leśna, Gołębia, 9",52.12499,20.70616,495.0,BHB,05-807,Podkowa Leśna,Gołębia,9.0,1.0,200108_200201_200301,co tydzień czwartek,1 raz w tygodniu,"1, 2, 3, 4",Cz,0.0,0.0,4.0,0.0,0.0,0.0,1.0,0.0,0.0,0.0,0.0,0.0,1.0,0.0,0.0,0.0,0.0,0.0,1.0,0.0,0.0,0.0,0.0,0.0,1.0,0.0,0.0,2Cz,2Cz_B_200108_200201_200301,1.0,2Cz_B_200108_200201_200301,1
"Poland, 05-830, Stara Wieś, Miłosna, 22",52.07924,20.78115,108.0,BHC,05-830,Stara Wieś,Miłosna,22.0,1.0,200108_200201_200301,2 i 4 piątek,2 razy w miesiącu,"2, 4",Pt,0.0,0.0,2.0,0.0,0.0,0.0,0.0,0.0,0.0,0.0,0.0,0.0,0.0,1.0,0.0,0.0,0.0,0.0,0.0,0.0,0.0,0.0,0.0,0.0,0.0,1.0,0.0,2Pt,2Pt_B_200108_200201_200301,0.0,2Cz_B_200108_200201_200301,1
"Poland, 96-317, Guzów, Michała Ogińskiego, 32",52.128056,20.329884,495.0,BRC,96-317,Guzów,Michała Ogińskiego,32.0,1.0,200108_200201_200301,2 piątek,1 raz w miesiącu,2,Pt,0.0,0.0,1.0,0.0,0.0,0.0,0.0,0.0,0.0,0.0,0.0,0.0,0.0,1.0,0.0,0.0,0.0,0.0,0.0,0.0,0.0,0.0,0.0,0.0,0.0,0.0,0.0,2Pt,2Pt_B_200108_200201_200301,0.0,2Cz_B_200108_200201_200301,1
"Poland, 96-321, Huta Żabiowolska, Przy Trasie, 12",52.03077,20.677414,495.0,BHB,96-321,Huta Żabiowolska,Przy Trasie,12.0,1.0,200108_200201_200301,co tydzień piątek,1 raz w tygodniu,"1, 2, 3, 4",Pt,0.0,0.0,4.0,0.0,0.0,0.0,0.0,1.0,0.0,0.0,0.0,0.0,0.0,1.0,0.0,0.0,0.0,0.0,0.0,1.0,0.0,0.0,0.0,0.0,0.0,1.0,0.0,2Pt,2Pt_B_200108_200201_200301,0.0,2Cz_B_200108_200201_200301,1
"Poland, 96-321, Słubica A, Zarzeczna, 19",52.01267,20.632622,495.0,BRAB,96-321,Słubica A,Zarzeczna,19.0,1.0,200108_200201_200301,2 i 4 piątek,2 razy w miesiącu,"2, 4",Pt,0.0,0.0,2.0,0.0,0.0,0.0,0.0,0.0,0.0,0.0,0.0,0.0,0.0,1.0,0.0,0.0,0.0,0.0,0.0,0.0,0.0,0.0,0.0,0.0,0.0,1.0,0.0,2Pt,2Pt_B_200108_200201_200301,0.0,2Cz_B_200108_200201_200301,1
"Poland, 05-825, Grodzisk Mazowiecki, Kresowa, 8",52.10179,20.61119,108.0,BRC,05-825,Grodzisk Mazowiecki,Kresowa,8.0,1.0,200108_200201_200301,2 i 4 piątek,2 razy w miesiącu,"2, 4",Pt,0.0,0.0,2.0,0.0,0.0,0.0,0.0,0.0,0.0,0.0,0.0,0.0,0.0,1.0,0.0,0.0,0.0,0.0,0.0,0.0,0.0,0.0,0.0,0.0,0.0,1.0,0.0,2Pt,2Pt_B_200108_200201_200301,0.0,2Cz_B_200108_200201_200301,1
"Poland, 96-313, Jaktorów, Generała Skokowskiego, 27",52.084724,20.543743,495.0,BRB,96-313,Jaktorów,Generała Skokowskiego,27.0,1.0,200108_200201_200301,co tydzień piątek,1 raz w tygodniu,"1, 2, 3, 4",Pt,0.0,0.0,4.0,0.0,0.0,0.0,0.0,1.0,0.0,0.0,0.0,0.0,0.0,1.0,0.0,0.0,0.0,0.0,0.0,1.0,0.0,0.0,0.0,0.0,0.0,1.0,0.0,2Pt,2Pt_B_200108_200201_200301,0.0,2Cz_B_200108_200201_200301,1
"Poland, 05-805, Otrębusy, Piaseckiego, 12",52.123936,20.761581,108.0,BHC,05-805,Otrębusy,Piaseckiego,12.0,1.0,200108_200201_200301,2 i 4 czwartek,2 razy w miesiącu,"2, 4",Cz,0.0,0.0,2.0,0.0,0.0,0.0,0.0,0.0,0.0,0.0,0.0,0.0,1.0,0.0,0.0,0.0,0.0,0.0,0.0,0.0,0.0,0.0,0.0,0.0,1.0,0.0,0.0,2Cz,2Cz_B_200108_200201_200301,1.0,2Cz_B_200108_200201_200301,1
"Poland, 05-830, Wolica, Długa, 32",52.120438,20.855604,54.0,BHC,05-830,Wolica,Długa,32.0,1.0,200108_200201_200301,2 i 4 piątek,2 razy w miesiącu,"2, 4",Pt,0.0,0.0,2.0,0.0,0.0,0.0,0.0,0.0,0.0,0.0,0.0,0.0,0.0,1.0,0.0,0.0,0.0,0.0,0.0,0.0,0.0,0.0,0.0,0.0,0.0,1.0,0.0,2Pt,2Pt_B_200108_200201_200301,0.0,2Cz_B_200108_200201_200301,1
"Poland, 05-800, Pruszków, Topolowa, 5",52.171436,20.813686,495.0,BHB,05-800,Pruszków,Topolowa,5.0,1.0,200108_200201_200301,co tydzień czwartek,1 raz w tygodniu,"1, 2, 3, 4",Cz,0.0,0.0,4.0,0.0,0.0,0.0,1.0,0.0,0.0,0.0,0.0,0.0,1.0,0.0,0.0,0.0,0.0,0.0,1.0,0.0,0.0,0.0,0.0,0.0,1.0,0.0,0.0,2Cz,2Cz_B_200108_200201_200301,1.0,2Cz_B_200108_200201_200301,1
"Poland, 02-665, Warszawa, Al. Wilanowska, 21",52.17938,21.02097,495.0,BWA,02-665,Warszawa,Al. Wilanowska,21.0,1.0,200108_200201_200301,poniedziałek czwartek sobota,3 razy w tygodniu,"1, 2, 3, 4","Pn, Cz, So",0.0,0.0,12.0,1.0,0.0,0.0,1.0,0.0,1.0,1.0,0.0,0.0,1.0,0.0,1.0,1.0,0.0,0.0,1.0,0.0,1.0,1.0,0.0,0.0,1.0,0.0,1.0,2Cz,2Cz_B_200108_200201_200301,1.0,2Cz_B_200108_200201_200301,1
"Poland, 96-321, Nowa Bukówka, Rumiankowa, 11",52.02323,20.65829,495.0,BRB,96-321,Nowa Bukówka,Rumiankowa,11.0,1.0,200108_200201_200301,2 i 4 piątek,2 razy w miesiącu,"2, 4",Pt,0.0,0.0,2.0,0.0,0.0,0.0,0.0,0.0,0.0,0.0,0.0,0.0,0.0,1.0,0.0,0.0,0.0,0.0,0.0,0.0,0.0,0.0,0.0,0.0,0.0,1.0,0.0,2Pt,2Pt_B_200108_200201_200301,0.0,2Cz_B_200108_200201_200301,1
"Poland, 05-830, Kostowiec, Dymman, 20",52.0593,20.73766,495.0,BHC,05-830,Kostowiec,Dymman,20.0,1.0,200108_200201_200301,co tydzień piątek,1 raz w tygodniu,"1, 2, 3, 4",Pt,0.0,0.0,4.0,0.0,0.0,0.0,0.0,1.0,0.0,0.0,0.0,0.0,0.0,1.0,0.0,0.0,0.0,0.0,0.0,1.0,0.0,0.0,0.0,0.0,0.0,1.0,0.0,2Pt,2Pt_B_200108_200201_200301,0.0,2Cz_B_200108_200201_200301,1
"Poland, 05-825, Grodzisk Mazowiecki, Żeromskiego, 21",52.111477,20.617414,495.0,BRC,05-825,Grodzisk Mazowiecki,Żeromskiego,21.0,1.0,200108_200201_200301,2 i 4 czwartek,2 razy w miesiącu,"2, 4",Cz,0.0,0.0,2.0,0.0,0.0,0.0,0.0,0.0,0.0,0.0,0.0,0.0,1.0,0.0,0.0,0.0,0.0,0.0,0.0,0.0,0.0,0.0,0.0,0.0,1.0,0.0,0.0,2Cz,2Cz_B_200108_200201_200301,1.0,2Cz_B_200108_200201_200301,1
"Poland, 05-825, Kozery, gen. Gustawa Orlicz-Dreszera, 34",52.097607,20.602406,108.0,BWB,05-825,Kozery,gen. Gustawa Orlicz-Dreszera,34.0,1.0,200108_200201_200301,2 i 4 czwartek,2 razy w miesiącu,"2, 4",Cz,0.0,0.0,2.0,0.0,0.0,0.0,0.0,0.0,0.0,0.0,0.0,0.0,1.0,0.0,0.0,0.0,0.0,0.0,0.0,0.0,0.0,0.0,0.0,0.0,1.0,0.0,0.0,2Cz,2Cz_B_200108_200201_200301,1.0,2Cz_B_200108_200201_200301,1
"Poland, 05-825, Grodzisk Mazowiecki, Spółdzielcza, 16",52.10528,20.623915,108.0,BRC,05-825,Grodzisk Mazowiecki,Spółdzielcza,16.0,1.0,200108_200201_200301,2 czwartek,1 raz w miesiącu,2,Cz,0.0,0.0,1.0,0.0,0.0,0.0,0.0,0.0,0.0,0.0,0.0,0.0,1.0,0.0,0.0,0.0,0.0,0.0,0.0,0.0,0.0,0.0,0.0,0.0,0.0,0.0,0.0,2Cz,2Cz_B_200108_200201_200301,1.0,2Cz_B_200108_200201_200301,1
"Poland, 05-825, Grodzisk Mazowiecki, Grunwaldzka, 19",52.102795,20.62071,54.0,BRC,05-825,Grodzisk Mazowiecki,Grunwaldzka,19.0,1.0,200108_200201_200301,2 i 4 czwartek,2 razy w miesiącu,"2, 4",Cz,0.0,0.0,2.0,0.0,0.0,0.0,0.0,0.0,0.0,0.0,0.0,0.0,1.0,0.0,0.0,0.0,0.0,0.0,0.0,0.0,0.0,0.0,0.0,0.0,1.0,0.0,0.0,2Cz,2Cz_B_200108_200201_200301,1.0,2Cz_B_200108_200201_200301,1
"Poland, 05-825, Grodzisk Mazowiecki, Montwiłła, 6",52.09341,20.62476,108.0,BRC,05-825,Grodzisk Mazowiecki,Montwiłła,6.0,1.0,200108_200201_200301,2 czwartek,1 raz w miesiącu,2,Cz,0.0,0.0,1.0,0.0,0.0,0.0,0.0,0.0,0.0,0.0,0.0,0.0,1.0,0.0,0.0,0.0,0.0,0.0,0.0,0.0,0.0,0.0,0.0,0.0,0.0,0.0,0.0,2Cz,2Cz_B_200108_200201_200301,1.0,2Cz_B_200108_200201_200301,1
"Poland, 05-831, Rozalin, Przyjazna, 18",52.06099,20.75385,54.0,BHC,05-831,Rozalin,Przyjazna,18.0,1.0,200108_200201_200301,2 i 4 piątek,2 razy w miesiącu,"2, 4",Pt,0.0,0.0,2.0,0.0,0.0,0.0,0.0,0.0,0.0,0.0,0.0,0.0,0.0,1.0,0.0,0.0,0.0,0.0,0.0,0.0,0.0,0.0,0.0,0.0,0.0,1.0,0.0,2Pt,2Pt_B_200108_200201_200301,0.0,2Cz_B_200108_200201_200301,1
"Poland, 00-844, Warszawa, Grzybowska, 10",52.2378,21.000332,495.0,BWA,00-844,Warszawa,Grzybowska,10.0,1.0,200108_200201_200301,co tydzień czwartek,1 raz w tygodniu,"1, 2, 3, 4",Cz,0.0,0.0,4.0,0.0,0.0,0.0,1.0,0.0,0.0,0.0,0.0,0.0,1.0,0.0,0.0,0.0,0.0,0.0,1.0,0.0,0.0,0.0,0.0,0.0,1.0,0.0,0.0,2Cz,2Cz_B_200108_200201_200301,1.0,2Cz_B_200108_200201_200301,1
"Poland, 02-497, Warszawa, AL.Jerozolimskie, 8",52.232628,21.023415,495.0,BWA,02-497,Warszawa,AL.Jerozolimskie,8.0,1.0,200108_200201_200301,poniedziałek wtorek środa czwartek piątek,5 razy w tygodniu,"1, 2, 3, 4","Pn, Wt, Sr, Cz, Pt",0.0,0.0,20.0,1.0,1.0,1.0,1.0,1.0,0.0,1.0,1.0,1.0,1.0,1.0,0.0,1.0,1.0,1.0,1.0,1.0,0.0,1.0,1.0,1.0,1.0,1.0,0.0,2Cz,2Cz_B_200108_200201_200301,1.0,2Cz_B_200108_200201_200301,1
"Poland, 05-831, Rozalin, Daniewice, 10",52.058887,20.749445,54.0,BHC,05-831,Rozalin,Daniewice,10.0,1.0,200108_200201_200301,2 i 4 piątek,2 razy w miesiącu,"2, 4",Pt,0.0,0.0,2.0,0.0,0.0,0.0,0.0,0.0,0.0,0.0,0.0,0.0,0.0,1.0,0.0,0.0,0.0,0.0,0.0,0.0,0.0,0.0,0.0,0.0,0.0,1.0,0.0,2Pt,2Pt_B_200108_200201_200301,0.0,2Cz_B_200108_200201_200301,1
"Poland, 05-825, Opypy, Piwoniowa, 5",52.07877,20.65669,495.0,BRC,05-825,Opypy,Piwoniowa,5.0,1.0,200108_200201_200301,co tydzień czwartek,1 raz w tygodniu,"1, 2, 3, 4",Cz,0.0,0.0,4.0,0.0,0.0,0.0,1.0,0.0,0.0,0.0,0.0,0.0,1.0,0.0,0.0,0.0,0.0,0.0,1.0,0.0,0.0,0.0,0.0,0.0,1.0,0.0,0.0,2Cz,2Cz_B_200108_200201_200301,1.0,2Cz_B_200108_200201_200301,1
"Poland, 05-816, Michałowice, Ogrodowa, 28",52.17736,20.876087,495.0,BHB,05-816,Michałowice,Ogrodowa,28.0,1.0,200108_200201_200301,co tydzień piątek,1 raz w tygodniu,"1, 2, 3, 4",Pt,0.0,0.0,4.0,0.0,0.0,0.0,0.0,1.0,0.0,0.0,0.0,0.0,0.0,1.0,0.0,0.0,0.0,0.0,0.0,1.0,0.0,0.0,0.0,0.0,0.0,1.0,0.0,2Pt,2Pt_B_200108_200201_200301,0.0,2Cz_B_200108_200201_200301,1
"Poland, 05-805, Otrębusy, Świerkowa, 21",52.120003,20.756155,495.0,BHB,05-805,Otrębusy,Świerkowa,21.0,1.0,200108_200201_200301,co tydzień czwartek,1 raz w tygodniu,"1, 2, 3, 4",Cz,0.0,0.0,4.0,0.0,0.0,0.0,1.0,0.0,0.0,0.0,0.0,0.0,1.0,0.0,0.0,0.0,0.0,0.0,1.0,0.0,0.0,0.0,0.0,0.0,1.0,0.0,0.0,2Cz,2Cz_B_200108_200201_200301,1.0,2Cz_B_200108_200201_200301,1
"Poland, 05-806, Pęcice, Piachy, 28",52.14846,20.849098,2250.0,BHA,05-806,Pęcice,Piachy,28.0,1.0,200108_200201_200301,co tydzień czwartek,1 raz w tygodniu,"1, 2, 3, 4",Cz,0.0,0.0,4.0,0.0,0.0,0.0,1.0,0.0,0.0,0.0,0.0,0.0,1.0,0.0,0.0,0.0,0.0,0.0,1.0,0.0,0.0,0.0,0.0,0.0,1.0,0.0,0.0,2Cz,2Cz_B_200108_200201_200301,1.0,2Cz_B_200108_200201_200301,1
"Poland, 05-090, Sokołów, Wacława, 34",52.14249,20.87297,495.0,BWC,05-090,Sokołów,Wacława,34.0,1.0,200108_200201_200301,2 i 4 piątek,2 razy w miesiącu,"2, 4",Pt,0.0,0.0,2.0,0.0,0.0,0.0,0.0,0.0,0.0,0.0,0.0,0.0,0.0,1.0,0.0,0.0,0.0,0.0,0.0,0.0,0.0,0.0,0.0,0.0,0.0,1.0,0.0,2Pt,2Pt_B_200108_200201_200301,0.0,2Cz_B_200108_200201_200301,1
"Poland, 02-495, Warszawa, Kazimierza Gierdziejewskiego, 7",52.202904,20.87362,495.0,BWC,02-495,Warszawa,Kazimierza Gierdziejewskiego,7.0,1.0,200108_200201_200301,co tydzień czwartek,1 raz w tygodniu,"1, 2, 3, 4",Cz,0.0,0.0,4.0,0.0,0.0,0.0,1.0,0.0,0.0,0.0,0.0,0.0,1.0,0.0,0.0,0.0,0.0,0.0,1.0,0.0,0.0,0.0,0.0,0.0,1.0,0.0,0.0,2Cz,2Cz_B_200108_200201_200301,1.0,2Cz_B_200108_200201_200301,1
"Poland, 02-336, Warszawa, Włochowska, 27",52.213398,20.943487,495.0,BWB,02-336,Warszawa,Włochowska,27.0,1.0,200108_200201_200301,co tydzień piątek,1 raz w tygodniu,"1, 2, 3, 4",Pt,0.0,0.0,4.0,0.0,0.0,0.0,0.0,1.0,0.0,0.0,0.0,0.0,0.0,1.0,0.0,0.0,0.0,0.0,0.0,1.0,0.0,0.0,0.0,0.0,0.0,1.0,0.0,2Pt,2Pt_B_200108_200201_200301,0.0,2Cz_B_200108_200201_200301,1
"Poland, 02-384, Warszawa, Włodarzewska, 27",52.20206,20.956127,495.0,BWA,02-384,Warszawa,Włodarzewska,27.0,1.0,200108_200201_200301,poniedziałek czwartek sobota,3 razy w tygodniu,"1, 2, 3, 4","Pn, Cz, So",0.0,0.0,12.0,1.0,0.0,0.0,1.0,0.0,1.0,1.0,0.0,0.0,1.0,0.0,1.0,1.0,0.0,0.0,1.0,0.0,1.0,1.0,0.0,0.0,1.0,0.0,1.0,2Cz,2Cz_B_200108_200201_200301,1.0,2Cz_B_200108_200201_200301,1
"Poland, 05-825, Kozery, Gruntowa, 13",52.0976,20.59065,495.0,BRC,05-825,Kozery,Gruntowa,13.0,1.0,200108_200201_200301,2 i 4 czwartek,2 razy w miesiącu,"2, 4",Cz,0.0,0.0,2.0,0.0,0.0,0.0,0.0,0.0,0.0,0.0,0.0,0.0,1.0,0.0,0.0,0.0,0.0,0.0,0.0,0.0,0.0,0.0,0.0,0.0,1.0,0.0,0.0,2Cz,2Cz_B_200108_200201_200301,1.0,2Cz_B_200108_200201_200301,1
"Poland, 05-825, Książenice, Młodości, 33",52.072548,20.695576,495.0,BRB,05-825,Książenice,Młodości,33.0,1.0,200108_200201_200301,co tydzień czwartek,1 raz w tygodniu,"1, 2, 3, 4",Cz,0.0,0.0,4.0,0.0,0.0,0.0,1.0,0.0,0.0,0.0,0.0,0.0,1.0,0.0,0.0,0.0,0.0,0.0,1.0,0.0,0.0,0.0,0.0,0.0,1.0,0.0,0.0,2Cz,2Cz_B_200108_200201_200301,1.0,2Cz_B_200108_200201_200301,1
"Poland, 05-830, Nadarzyn, Wiśniowa, 13",52.09768,20.794031,495.0,BHC,05-830,Nadarzyn,Wiśniowa,13.0,1.0,200108_200201_200301,2 i 4 piątek,2 razy w miesiącu,"2, 4",Pt,0.0,0.0,2.0,0.0,0.0,0.0,0.0,0.0,0.0,0.0,0.0,0.0,0.0,1.0,0.0,0.0,0.0,0.0,0.0,0.0,0.0,0.0,0.0,0.0,0.0,1.0,0.0,2Pt,2Pt_B_200108_200201_200301,0.0,2Cz_B_200108_200201_200301,1
"Poland, 05-816, Michałowice, Lotnicza, 20",52.178585,20.87597,54.0,BWC,05-816,Michałowice,Lotnicza,20.0,1.0,200108_200201_200301,2 i 4 piątek,2 razy w miesiącu,"2, 4",Pt,0.0,0.0,2.0,0.0,0.0,0.0,0.0,0.0,0.0,0.0,0.0,0.0,0.0,1.0,0.0,0.0,0.0,0.0,0.0,0.0,0.0,0.0,0.0,0.0,0.0,1.0,0.0,2Pt,2Pt_B_200108_200201_200301,0.0,2Cz_B_200108_200201_200301,1
"Poland, 05-806, Pęcice, Parkowa, 25",52.152855,20.848879,108.0,BHC,05-806,Pęcice,Parkowa,25.0,1.0,200108_200201_200301,2 i 4 piątek,2 razy w miesiącu,"2, 4",Pt,0.0,0.0,2.0,0.0,0.0,0.0,0.0,0.0,0.0,0.0,0.0,0.0,0.0,1.0,0.0,0.0,0.0,0.0,0.0,0.0,0.0,0.0,0.0,0.0,0.0,1.0,0.0,2Pt,2Pt_B_200108_200201_200301,0.0,2Cz_B_200108_200201_200301,1
"Poland, 05-830, Kajetany, Orla, 34",52.081963,20.82296,495.0,BHB,05-830,Kajetany,Orla,34.0,1.0,200108_200201_200301,co tydzień piątek,1 raz w tygodniu,"1, 2, 3, 4",Pt,0.0,0.0,4.0,0.0,0.0,0.0,0.0,1.0,0.0,0.0,0.0,0.0,0.0,1.0,0.0,0.0,0.0,0.0,0.0,1.0,0.0,0.0,0.0,0.0,0.0,1.0,0.0,2Pt,2Pt_B_200108_200201_200301,0.0,2Cz_B_200108_200201_200301,1
"Poland, 05-825, Grodzisk Mazowiecki, Sienkiewicza, 33",52.102512,20.627085,108.0,BRC,05-825,Grodzisk Mazowiecki,Sienkiewicza,33.0,1.0,200108_200201_200301,2 i 4 czwartek,2 razy w miesiącu,"2, 4",Cz,0.0,0.0,2.0,0.0,0.0,0.0,0.0,0.0,0.0,0.0,0.0,0.0,1.0,0.0,0.0,0.0,0.0,0.0,0.0,0.0,0.0,0.0,0.0,0.0,1.0,0.0,0.0,2Cz,2Cz_B_200108_200201_200301,1.0,2Cz_B_200108_200201_200301,1
"Poland, 05-830, Stara Wieś, Bajkowa, 12",52.08351,20.78794,108.0,BHC,05-830,Stara Wieś,Bajkowa,12.0,1.0,200108_200201_200301,2 i 4 piątek,2 razy w miesiącu,"2, 4",Pt,0.0,0.0,2.0,0.0,0.0,0.0,0.0,0.0,0.0,0.0,0.0,0.0,0.0,1.0,0.0,0.0,0.0,0.0,0.0,0.0,0.0,0.0,0.0,0.0,0.0,1.0,0.0,2Pt,2Pt_B_200108_200201_200301,0.0,2Cz_B_200108_200201_200301,1
"Poland, 05-800, Pruszków, Andrzeja, 14",52.161736,20.819662,495.0,BWC,05-800,Pruszków,Andrzeja,14.0,1.0,200108_200201_200301,co tydzień czwartek,1 raz w tygodniu,"1, 2, 3, 4",Cz,0.0,0.0,4.0,0.0,0.0,0.0,1.0,0.0,0.0,0.0,0.0,0.0,1.0,0.0,0.0,0.0,0.0,0.0,1.0,0.0,0.0,0.0,0.0,0.0,1.0,0.0,0.0,2Cz,2Cz_B_200108_200201_200301,1.0,2Cz_B_200108_200201_200301,1
"Poland, 05-816, Opacz Kolonia, Spisaka, 33",52.18727,20.884184,495.0,BRA,05-816,Opacz Kolonia,Spisaka,33.0,1.0,200108_200201_200301,co tydzień piątek,1 raz w tygodniu,"1, 2, 3, 4",Pt,0.0,0.0,4.0,0.0,0.0,0.0,0.0,1.0,0.0,0.0,0.0,0.0,0.0,1.0,0.0,0.0,0.0,0.0,0.0,1.0,0.0,0.0,0.0,0.0,0.0,1.0,0.0,2Pt,2Pt_B_200108_200201_200301,0.0,2Cz_B_200108_200201_200301,1
"Poland, 05-819, Piastów, Noakowskiego, 23",52.189133,20.853802,495.0,BHA,05-819,Piastów,Noakowskiego,23.0,1.0,200108_200201_200301,2 i 4 czwartek,2 razy w miesiącu,"2, 4",Cz,0.0,0.0,2.0,0.0,0.0,0.0,0.0,0.0,0.0,0.0,0.0,0.0,1.0,0.0,0.0,0.0,0.0,0.0,0.0,0.0,0.0,0.0,0.0,0.0,1.0,0.0,0.0,2Cz,2Cz_B_200108_200201_200301,1.0,2Cz_B_200108_200201_200301,1
"Poland, 00-252, Warszawa, Górczewska, 8",52.237183,20.969465,495.0,BWC,00-252,Warszawa,Górczewska,8.0,1.0,200108_200201_200301,2 i 4 czwartek,2 razy w miesiącu,"2, 4",Cz,0.0,0.0,2.0,0.0,0.0,0.0,0.0,0.0,0.0,0.0,0.0,0.0,1.0,0.0,0.0,0.0,0.0,0.0,0.0,0.0,0.0,0.0,0.0,0.0,1.0,0.0,0.0,2Cz,2Cz_B_200108_200201_200301,1.0,2Cz_B_200108_200201_200301,1
"Zawodzie 18, 02-981 Warszawa",52.183426,21.085442,0.0,,,,,,,,,,,,,,,,,,,,,,,,,,,,,,,,,,,,,,,,,,,1
"Zawodzie 18, 02-981 Warszawa",52.183426,21.085442,0.0,,,,,,,,,,,,,,,,,,,,,,,,,,,,,,,,,,,,,,,,,,,2
"Poland, 01-747, Warszawa, Powązkowska, 17",52.258537,20.96265,495.0,BWA,01-747,Warszawa,Powązkowska,17.0,1.0,200108_200201_200301,poniedziałek czwartek sobota,3 razy w tygodniu,"1, 2, 3, 4","Pn, Cz, So",0.0,0.0,12.0,1.0,0.0,0.0,1.0,0.0,1.0,1.0,0.0,0.0,1.0,0.0,1.0,1.0,0.0,0.0,1.0,0.0,1.0,1.0,0.0,0.0,1.0,0.0,1.0,2Cz,2Cz_B_200108_200201_200301,1.0,2Cz_B_200108_200201_200301,2
"Poland, 02-507, Warszawa, Gniewkowska, 27",52.219845,20.944263,108.0,BWB,02-507,Warszawa,Gniewkowska,27.0,1.0,200108_200201_200301,2 czwartek,1 raz w miesiącu,2,Cz,0.0,0.0,1.0,0.0,0.0,0.0,0.0,0.0,0.0,0.0,0.0,0.0,1.0,0.0,0.0,0.0,0.0,0.0,0.0,0.0,0.0,0.0,0.0,0.0,0.0,0.0,0.0,2Cz,2Cz_B_200108_200201_200301,1.0,2Cz_B_200108_200201_200301,2
"Poland, 05-840, Koszajec, Św. Józefa, 11",52.168697,20.748554,495.0,BHB,05-840,Koszajec,Św. Józefa,11.0,1.0,200108_200201_200301,wtorek czwartek,2 razy w tygodniu,"1, 2, 3, 4","Wt, Cz",0.0,0.0,8.0,0.0,1.0,0.0,1.0,0.0,0.0,0.0,1.0,0.0,1.0,0.0,0.0,0.0,1.0,0.0,1.0,0.0,0.0,0.0,1.0,0.0,1.0,0.0,0.0,2Cz,2Cz_B_200108_200201_200301,1.0,2Cz_B_200108_200201_200301,2
"Poland, 05-825, Chrzanów Mały, Chrzanów Mały, 29",50.16024,19.46748,108.0,BRC,05-825,Chrzanów Mały,Chrzanów Mały,29.0,1.0,200108_200201_200301,2 i 4 czwartek,2 razy w miesiącu,"2, 4",Cz,0.0,0.0,2.0,0.0,0.0,0.0,0.0,0.0,0.0,0.0,0.0,0.0,1.0,0.0,0.0,0.0,0.0,0.0,0.0,0.0,0.0,0.0,0.0,0.0,1.0,0.0,0.0,2Cz,2Cz_B_200108_200201_200301,1.0,2Cz_B_200108_200201_200301,2
"Poland, 05-800, Pruszków, al. Wojska Polskiego, 30",52.16136,20.802122,108.0,BWC,05-800,Pruszków,al. Wojska Polskiego,30.0,1.0,200108_200201_200301,wtorek czwartek,2 razy w tygodniu,"1, 2, 3, 4","Wt, Cz",0.0,0.0,8.0,0.0,1.0,0.0,1.0,0.0,0.0,0.0,1.0,0.0,1.0,0.0,0.0,0.0,1.0,0.0,1.0,0.0,0.0,0.0,1.0,0.0,1.0,0.0,0.0,2Cz,2Cz_B_200108_200201_200301,1.0,2Cz_B_200108_200201_200301,2
"Poland, 96-321, Siestrzeń, Objazdowa, 26",52.05042,20.709194,495.0,BHC,96-321,Siestrzeń,Objazdowa,26.0,1.0,200108_200201_200301,2 i 4 piątek,2 razy w miesiącu,"2, 4",Pt,0.0,0.0,2.0,0.0,0.0,0.0,0.0,0.0,0.0,0.0,0.0,0.0,0.0,1.0,0.0,0.0,0.0,0.0,0.0,0.0,0.0,0.0,0.0,0.0,0.0,1.0,0.0,2Pt,2Pt_B_200108_200201_200301,0.0,2Cz_B_200108_200201_200301,2
"Poland, 05-825, Janinów, Norweska, 17",52.078606,20.610481,495.0,BRA,05-825,Janinów,Norweska,17.0,1.0,200108_200201_200301,poniedziałek czwartek,2 razy w tygodniu,"1, 2, 3, 4","Pn, Cz",0.0,0.0,8.0,1.0,0.0,0.0,1.0,0.0,0.0,1.0,0.0,0.0,1.0,0.0,0.0,1.0,0.0,0.0,1.0,0.0,0.0,1.0,0.0,0.0,1.0,0.0,0.0,2Cz,2Cz_B_200108_200201_200301,1.0,2Cz_B_200108_200201_200301,2
"Poland, 05-831, Parole, Szeroka, 23",52.042664,20.80578,495.0,BHB,05-831,Parole,Szeroka,23.0,1.0,200108_200201_200301,co tydzień piątek,1 raz w tygodniu,"1, 2, 3, 4",Pt,0.0,0.0,4.0,0.0,0.0,0.0,0.0,1.0,0.0,0.0,0.0,0.0,0.0,1.0,0.0,0.0,0.0,0.0,0.0,1.0,0.0,0.0,0.0,0.0,0.0,1.0,0.0,2Pt,2Pt_B_200108_200201_200301,0.0,2Cz_B_200108_200201_200301,2
"Poland, 96-313, Jaktorów, Pomorska, 23",52.08895,20.549437,495.0,BRC,96-313,Jaktorów,Pomorska,23.0,1.0,200108_200201_200301,2 i 4 piątek,2 razy w miesiącu,"2, 4",Pt,0.0,0.0,2.0,0.0,0.0,0.0,0.0,0.0,0.0,0.0,0.0,0.0,0.0,1.0,0.0,0.0,0.0,0.0,0.0,0.0,0.0,0.0,0.0,0.0,0.0,1.0,0.0,2Pt,2Pt_B_200108_200201_200301,0.0,2Cz_B_200108_200201_200301,2
"Poland, 96-313, Jaktorów, Błotna, 6",52.087147,20.549719,495.0,BRC,96-313,Jaktorów,Błotna,6.0,1.0,200108_200201_200301,2 i 4 piątek,2 razy w miesiącu,"2, 4",Pt,0.0,0.0,2.0,0.0,0.0,0.0,0.0,0.0,0.0,0.0,0.0,0.0,0.0,1.0,0.0,0.0,0.0,0.0,0.0,0.0,0.0,0.0,0.0,0.0,0.0,1.0,0.0,2Pt,2Pt_B_200108_200201_200301,0.0,2Cz_B_200108_200201_200301,2
"Poland, 05-831, Parole, Olesińska, 8",52.04711,20.809494,54.0,BHB,05-831,Parole,Olesińska,8.0,1.0,200108_200201_200301,2 i 4 piątek,2 razy w miesiącu,"2, 4",Pt,0.0,0.0,2.0,0.0,0.0,0.0,0.0,0.0,0.0,0.0,0.0,0.0,0.0,1.0,0.0,0.0,0.0,0.0,0.0,0.0,0.0,0.0,0.0,0.0,0.0,1.0,0.0,2Pt,2Pt_B_200108_200201_200301,0.0,2Cz_B_200108_200201_200301,2
"Poland, 96-313, Kady, Dragońska, 12",52.110348,20.677664,54.0,BHC,96-313,Kady,Dragońska,12.0,1.0,200108_200201_200301,2 i 4 czwartek,2 razy w miesiącu,"2, 4",Cz,0.0,0.0,2.0,0.0,0.0,0.0,0.0,0.0,0.0,0.0,0.0,0.0,1.0,0.0,0.0,0.0,0.0,0.0,0.0,0.0,0.0,0.0,0.0,0.0,1.0,0.0,0.0,2Cz,2Cz_B_200108_200201_200301,1.0,2Cz_B_200108_200201_200301,2
"Poland, 05-825, Grodzisk Mazowiecki, Chłopickiego, 12",52.104725,20.648474,54.0,BRC,05-825,Grodzisk Mazowiecki,Chłopickiego,12.0,1.0,200108_200201_200301,2 i 4 czwartek,2 razy w miesiącu,"2, 4",Cz,0.0,0.0,2.0,0.0,0.0,0.0,0.0,0.0,0.0,0.0,0.0,0.0,1.0,0.0,0.0,0.0,0.0,0.0,0.0,0.0,0.0,0.0,0.0,0.0,1.0,0.0,0.0,2Cz,2Cz_B_200108_200201_200301,1.0,2Cz_B_200108_200201_200301,2
"Poland, 05-825, Grodzisk Mazowiecki, Składowa, 33",52.10903,20.623386,54.0,BRC,05-825,Grodzisk Mazowiecki,Składowa,33.0,1.0,200108_200201_200301,2 i 4 czwartek,2 razy w miesiącu,"2, 4",Cz,0.0,0.0,2.0,0.0,0.0,0.0,0.0,0.0,0.0,0.0,0.0,0.0,1.0,0.0,0.0,0.0,0.0,0.0,0.0,0.0,0.0,0.0,0.0,0.0,1.0,0.0,0.0,2Cz,2Cz_B_200108_200201_200301,1.0,2Cz_B_200108_200201_200301,2
"Poland, 05-830, Nadarzyn, Jaworowa, 10",52.10828,20.798853,54.0,BHC,05-830,Nadarzyn,Jaworowa,10.0,1.0,200108_200201_200301,2 i 4 piątek,2 razy w miesiącu,"2, 4",Pt,0.0,0.0,2.0,0.0,0.0,0.0,0.0,0.0,0.0,0.0,0.0,0.0,0.0,1.0,0.0,0.0,0.0,0.0,0.0,0.0,0.0,0.0,0.0,0.0,0.0,1.0,0.0,2Pt,2Pt_B_200108_200201_200301,0.0,2Cz_B_200108_200201_200301,2
"Poland, 02-634, Warszawa, Racławicka, 18",52.196762,20.992538,108.0,BWC,02-634,Warszawa,Racławicka,18.0,1.0,200108_200201_200301,poniedziałek czwartek,2 razy w tygodniu,"1, 2, 3, 4","Pn, Cz",0.0,0.0,8.0,1.0,0.0,0.0,1.0,0.0,0.0,1.0,0.0,0.0,1.0,0.0,0.0,1.0,0.0,0.0,1.0,0.0,0.0,1.0,0.0,0.0,1.0,0.0,0.0,2Cz,2Cz_B_200108_200201_200301,1.0,2Cz_B_200108_200201_200301,2
"Poland, 96-300, Żyrardów, Ossowskiego, 34",52.058853,20.447636,54.0,BRC,96-300,Żyrardów,Ossowskiego,34.0,1.0,200108_200201_200301,2 i 4 piątek,2 razy w miesiącu,"2, 4",Pt,0.0,0.0,2.0,0.0,0.0,0.0,0.0,0.0,0.0,0.0,0.0,0.0,0.0,1.0,0.0,0.0,0.0,0.0,0.0,0.0,0.0,0.0,0.0,0.0,0.0,1.0,0.0,2Pt,2Pt_B_200108_200201_200301,0.0,2Cz_B_200108_200201_200301,2
"Poland, 96-320 , Mszczonów, Pogorzałki, 20",51.976665,20.553612,495.0,BRA,96-320 ,Mszczonów,Pogorzałki,20.0,1.0,200108_200201_200301,co tydzień piątek,1 raz w tygodniu,"1, 2, 3, 4",Pt,0.0,0.0,4.0,0.0,0.0,0.0,0.0,1.0,0.0,0.0,0.0,0.0,0.0,1.0,0.0,0.0,0.0,0.0,0.0,1.0,0.0,0.0,0.0,0.0,0.0,1.0,0.0,2Pt,2Pt_B_200108_200201_200301,0.0,2Cz_B_200108_200201_200301,2
"Poland, 00-717, Warszawa, Czerniakowska, 28",52.20262,21.050348,54.0,BWC,00-717,Warszawa,Czerniakowska,28.0,1.0,200108_200201_200301,2 i 4 czwartek,2 razy w miesiącu,"2, 4",Cz,0.0,0.0,2.0,0.0,0.0,0.0,0.0,0.0,0.0,0.0,0.0,0.0,1.0,0.0,0.0,0.0,0.0,0.0,0.0,0.0,0.0,0.0,0.0,0.0,1.0,0.0,0.0,2Cz,2Cz_B_200108_200201_200301,1.0,2Cz_B_200108_200201_200301,2
"Poland, 05-830, Urzut, Ekologiczna, 29",52.06158,20.752783,495.0,BHC,05-830,Urzut,Ekologiczna,29.0,1.0,200108_200201_200301,2 i 4 piątek,2 razy w miesiącu,"2, 4",Pt,0.0,0.0,2.0,0.0,0.0,0.0,0.0,0.0,0.0,0.0,0.0,0.0,0.0,1.0,0.0,0.0,0.0,0.0,0.0,0.0,0.0,0.0,0.0,0.0,0.0,1.0,0.0,2Pt,2Pt_B_200108_200201_200301,0.0,2Cz_B_200108_200201_200301,2
"Poland, 96-321, Żabia Wola, Przejazdowa, 14",52.03565,20.689375,54.0,BHB,96-321,Żabia Wola,Przejazdowa,14.0,1.0,200108_200201_200301,2 i 4 piątek,2 razy w miesiącu,"2, 4",Pt,0.0,0.0,2.0,0.0,0.0,0.0,0.0,0.0,0.0,0.0,0.0,0.0,0.0,1.0,0.0,0.0,0.0,0.0,0.0,0.0,0.0,0.0,0.0,0.0,0.0,1.0,0.0,2Pt,2Pt_B_200108_200201_200301,0.0,2Cz_B_200108_200201_200301,2
"Poland, 05-830, Szamoty, Orłów, 29",52.06331,20.842394,495.0,BHC,05-830,Szamoty,Orłów,29.0,1.0,200108_200201_200301,2 i 4 piątek,2 razy w miesiącu,"2, 4",Pt,0.0,0.0,2.0,0.0,0.0,0.0,0.0,0.0,0.0,0.0,0.0,0.0,0.0,1.0,0.0,0.0,0.0,0.0,0.0,0.0,0.0,0.0,0.0,0.0,0.0,1.0,0.0,2Pt,2Pt_B_200108_200201_200301,0.0,2Cz_B_200108_200201_200301,2
"Poland, 05-825, Kozerki, Jowisza, 31",52.08702,20.586,495.0,BRB,05-825,Kozerki,Jowisza,31.0,1.0,200108_200201_200301,2 i 4 czwartek,2 razy w miesiącu,"2, 4",Cz,0.0,0.0,2.0,0.0,0.0,0.0,0.0,0.0,0.0,0.0,0.0,0.0,1.0,0.0,0.0,0.0,0.0,0.0,0.0,0.0,0.0,0.0,0.0,0.0,1.0,0.0,0.0,2Cz,2Cz_B_200108_200201_200301,1.0,2Cz_B_200108_200201_200301,2
"Poland, 01-377, Warszawa, Połczyńska, 11",52.222073,20.924955,495.0,BWA,01-377,Warszawa,Połczyńska,11.0,1.0,200108_200201_200301,poniedziałek czwartek,2 razy w tygodniu,"1, 2, 3, 4","Pn, Cz",0.0,0.0,8.0,1.0,0.0,0.0,1.0,0.0,0.0,1.0,0.0,0.0,1.0,0.0,0.0,1.0,0.0,0.0,1.0,0.0,0.0,1.0,0.0,0.0,1.0,0.0,0.0,2Cz,2Cz_B_200108_200201_200301,1.0,2Cz_B_200108_200201_200301,2
"Poland, 02-785, Warszawa, Wiolinowa, 25",52.160572,21.026814,495.0,BWC,02-785,Warszawa,Wiolinowa,25.0,1.0,200108_200201_200301,co tydzień czwartek,1 raz w tygodniu,"1, 2, 3, 4",Cz,0.0,0.0,4.0,0.0,0.0,0.0,1.0,0.0,0.0,0.0,0.0,0.0,1.0,0.0,0.0,0.0,0.0,0.0,1.0,0.0,0.0,0.0,0.0,0.0,1.0,0.0,0.0,2Cz,2Cz_B_200108_200201_200301,1.0,2Cz_B_200108_200201_200301,2
"Poland, 02-972, Warszawa, Aleja Rzeczypospolitej, 33",52.167927,21.066996,495.0,BWA,02-972,Warszawa,Aleja Rzeczypospolitej,33.0,1.0,200108_200201_200301,poniedziałek czwartek sobota,3 razy w tygodniu,"1, 2, 3, 4","Pn, Cz, So",0.0,0.0,12.0,1.0,0.0,0.0,1.0,0.0,1.0,1.0,0.0,0.0,1.0,0.0,1.0,1.0,0.0,0.0,1.0,0.0,1.0,1.0,0.0,0.0,1.0,0.0,1.0,2Cz,2Cz_B_200108_200201_200301,1.0,2Cz_B_200108_200201_200301,2
"Poland, 05-825, Grodzisk Mazowiecki, Obrońców Getta, 5",52.10552,20.621008,108.0,BRC,05-825,Grodzisk Mazowiecki,Obrońców Getta,5.0,1.0,200108_200201_200301,2 i 4 czwartek,2 razy w miesiącu,"2, 4",Cz,0.0,0.0,2.0,0.0,0.0,0.0,0.0,0.0,0.0,0.0,0.0,0.0,1.0,0.0,0.0,0.0,0.0,0.0,0.0,0.0,0.0,0.0,0.0,0.0,1.0,0.0,0.0,2Cz,2Cz_B_200108_200201_200301,1.0,2Cz_B_200108_200201_200301,2
"Poland, 05-825, Grodzisk Mazowiecki, Zachodnia, 8",52.12217,20.70983,495.0,BRA,05-825,Grodzisk Mazowiecki,Zachodnia,8.0,1.0,200108_200201_200301,co tydzień czwartek,1 raz w tygodniu,"1, 2, 3, 4",Cz,0.0,0.0,4.0,0.0,0.0,0.0,1.0,0.0,0.0,0.0,0.0,0.0,1.0,0.0,0.0,0.0,0.0,0.0,1.0,0.0,0.0,0.0,0.0,0.0,1.0,0.0,0.0,2Cz,2Cz_B_200108_200201_200301,1.0,2Cz_B_200108_200201_200301,2
"Poland, 05-831, Rozalin, Rukoli, 32",52.055237,20.741007,54.0,BHC,05-831,Rozalin,Rukoli,32.0,1.0,200108_200201_200301,2 i 4 piątek,2 razy w miesiącu,"2, 4",Pt,0.0,0.0,2.0,0.0,0.0,0.0,0.0,0.0,0.0,0.0,0.0,0.0,0.0,1.0,0.0,0.0,0.0,0.0,0.0,0.0,0.0,0.0,0.0,0.0,0.0,1.0,0.0,2Pt,2Pt_B_200108_200201_200301,0.0,2Cz_B_200108_200201_200301,2
"Poland, 05-825, Grodzisk Mazowiecki, Langiewicza, 29",52.11129,20.619102,495.0,BRC,05-825,Grodzisk Mazowiecki,Langiewicza,29.0,1.0,200108_200201_200301,co tydzień czwartek,1 raz w tygodniu,"1, 2, 3, 4",Cz,0.0,0.0,4.0,0.0,0.0,0.0,1.0,0.0,0.0,0.0,0.0,0.0,1.0,0.0,0.0,0.0,0.0,0.0,1.0,0.0,0.0,0.0,0.0,0.0,1.0,0.0,0.0,2Cz,2Cz_B_200108_200201_200301,1.0,2Cz_B_200108_200201_200301,2
"Poland, 02-945, Warszawa, Posag 7 Panien, 18",52.20434,20.878693,495.0,BWB,02-945,Warszawa,Posag 7 Panien,18.0,1.0,200108_200201_200301,co tydzień czwartek,1 raz w tygodniu,"1, 2, 3, 4",Cz,0.0,0.0,4.0,0.0,0.0,0.0,1.0,0.0,0.0,0.0,0.0,0.0,1.0,0.0,0.0,0.0,0.0,0.0,1.0,0.0,0.0,0.0,0.0,0.0,1.0,0.0,0.0,2Cz,2Cz_B_200108_200201_200301,1.0,2Cz_B_200108_200201_200301,2
"Poland, 05-830, Kostowiec, Przemysłowa, 7",52.06268,20.744513,54.0,BHC,05-830,Kostowiec,Przemysłowa,7.0,1.0,200108_200201_200301,co tydzień piątek,1 raz w tygodniu,"1, 2, 3, 4",Pt,0.0,0.0,4.0,0.0,0.0,0.0,0.0,1.0,0.0,0.0,0.0,0.0,0.0,1.0,0.0,0.0,0.0,0.0,0.0,1.0,0.0,0.0,0.0,0.0,0.0,1.0,0.0,2Pt,2Pt_B_200108_200201_200301,0.0,2Cz_B_200108_200201_200301,2
"Poland, 05-825, Grodzisk Mazowiecki, Gen. Orlicz Dreszera, 33",52.09284,20.58528,495.0,BRA,05-825,Grodzisk Mazowiecki,Gen. Orlicz Dreszera,33.0,1.0,200108_200201_200301,co tydzień czwartek,1 raz w tygodniu,"1, 2, 3, 4",Cz,0.0,0.0,4.0,0.0,0.0,0.0,1.0,0.0,0.0,0.0,0.0,0.0,1.0,0.0,0.0,0.0,0.0,0.0,1.0,0.0,0.0,0.0,0.0,0.0,1.0,0.0,0.0,2Cz,2Cz_B_200108_200201_200301,1.0,2Cz_B_200108_200201_200301,2
"Poland, 05-825, Grodzisk Mazowiecki, Plac Króla Zygmunta Starego, 7",52.10379,20.621582,108.0,BRC,05-825,Grodzisk Mazowiecki,Plac Króla Zygmunta Starego,7.0,1.0,200108_200201_200301,2 i 4 czwartek,2 razy w miesiącu,"2, 4",Cz,0.0,0.0,2.0,0.0,0.0,0.0,0.0,0.0,0.0,0.0,0.0,0.0,1.0,0.0,0.0,0.0,0.0,0.0,0.0,0.0,0.0,0.0,0.0,0.0,1.0,0.0,0.0,2Cz,2Cz_B_200108_200201_200301,1.0,2Cz_B_200108_200201_200301,2
"Poland, 05-830, Nadarzyn, Komorowska, 8",52.098778,20.81615,495.0,BHB,05-830,Nadarzyn,Komorowska,8.0,1.0,200108_200201_200301,co tydzień piątek,1 raz w tygodniu,"1, 2, 3, 4",Pt,0.0,0.0,4.0,0.0,0.0,0.0,0.0,1.0,0.0,0.0,0.0,0.0,0.0,1.0,0.0,0.0,0.0,0.0,0.0,1.0,0.0,0.0,0.0,0.0,0.0,1.0,0.0,2Pt,2Pt_B_200108_200201_200301,0.0,2Cz_B_200108_200201_200301,2
"Poland, 05-552, Wólka Kosowska, Gruszkowa, 19",52.055996,20.844627,495.0,BWC,05-552,Wólka Kosowska,Gruszkowa,19.0,1.0,200108_200201_200301,co tydzień piątek,1 raz w tygodniu,"1, 2, 3, 4",Pt,0.0,0.0,4.0,0.0,0.0,0.0,0.0,1.0,0.0,0.0,0.0,0.0,0.0,1.0,0.0,0.0,0.0,0.0,0.0,1.0,0.0,0.0,0.0,0.0,0.0,1.0,0.0,2Pt,2Pt_B_200108_200201_200301,0.0,2Cz_B_200108_200201_200301,2
"Poland, 05-825, Grodzisk Mazowiecki, Plac Wolności, 16",52.104668,20.622355,108.0,BRC,05-825,Grodzisk Mazowiecki,Plac Wolności,16.0,1.0,200108_200201_200301,2 i 4 czwartek,2 razy w miesiącu,"2, 4",Cz,0.0,0.0,2.0,0.0,0.0,0.0,0.0,0.0,0.0,0.0,0.0,0.0,1.0,0.0,0.0,0.0,0.0,0.0,0.0,0.0,0.0,0.0,0.0,0.0,1.0,0.0,0.0,2Cz,2Cz_B_200108_200201_200301,1.0,2Cz_B_200108_200201_200301,2
"Poland, 05-825, Kałęczyn, Okopowa, 32",52.08409,20.61693,495.0,BRC,05-825,Kałęczyn,Okopowa,32.0,1.0,200108_200201_200301,co tydzień czwartek,1 raz w tygodniu,"1, 2, 3, 4",Cz,0.0,0.0,4.0,0.0,0.0,0.0,1.0,0.0,0.0,0.0,0.0,0.0,1.0,0.0,0.0,0.0,0.0,0.0,1.0,0.0,0.0,0.0,0.0,0.0,1.0,0.0,0.0,2Cz,2Cz_B_200108_200201_200301,1.0,2Cz_B_200108_200201_200301,2
"Poland, 05-830, Nadarzyn, Turystyczna, 12",52.09915,20.81017,54.0,BHC,05-830,Nadarzyn,Turystyczna,12.0,1.0,200108_200201_200301,2 i 4 piątek,2 razy w miesiącu,"2, 4",Pt,0.0,0.0,2.0,0.0,0.0,0.0,0.0,0.0,0.0,0.0,0.0,0.0,0.0,1.0,0.0,0.0,0.0,0.0,0.0,0.0,0.0,0.0,0.0,0.0,0.0,1.0,0.0,2Pt,2Pt_B_200108_200201_200301,0.0,2Cz_B_200108_200201_200301,2
"Poland, 05-830, Urzut, Malownicza, 10",52.0699,20.752634,54.0,BHC,05-830,Urzut,Malownicza,10.0,1.0,200108_200201_200301,2 i 4 piątek,2 razy w miesiącu,"2, 4",Pt,0.0,0.0,2.0,0.0,0.0,0.0,0.0,0.0,0.0,0.0,0.0,0.0,0.0,1.0,0.0,0.0,0.0,0.0,0.0,0.0,0.0,0.0,0.0,0.0,0.0,1.0,0.0,2Pt,2Pt_B_200108_200201_200301,0.0,2Cz_B_200108_200201_200301,2
"Poland, 96-315, Wiskitki, Kulinarna, 8",52.093006,20.40105,108.0,BRA,96-315,Wiskitki,Kulinarna,8.0,1.0,200108_200201_200301,2 i 4 piątek,2 razy w miesiącu,"2, 4",Pt,0.0,0.0,2.0,0.0,0.0,0.0,0.0,0.0,0.0,0.0,0.0,0.0,0.0,1.0,0.0,0.0,0.0,0.0,0.0,0.0,0.0,0.0,0.0,0.0,0.0,1.0,0.0,2Pt,2Pt_B_200108_200201_200301,0.0,2Cz_B_200108_200201_200301,2
"Poland, 96-321, Żabia Wola, Ślaskiego, 16",52.02684,20.68825,108.0,BHC,96-321,Żabia Wola,Ślaskiego,16.0,1.0,200108_200201_200301,2 i 4 piątek,2 razy w miesiącu,"2, 4",Pt,0.0,0.0,2.0,0.0,0.0,0.0,0.0,0.0,0.0,0.0,0.0,0.0,0.0,1.0,0.0,0.0,0.0,0.0,0.0,0.0,0.0,0.0,0.0,0.0,0.0,1.0,0.0,2Pt,2Pt_B_200108_200201_200301,0.0,2Cz_B_200108_200201_200301,2
"Poland, 05-831, Rozalin, Młochowska, 25",52.051376,20.734339,54.0,BHC,05-831,Rozalin,Młochowska,25.0,1.0,200108_200201_200301,2 i 4 piątek,2 razy w miesiącu,"2, 4",Pt,0.0,0.0,2.0,0.0,0.0,0.0,0.0,0.0,0.0,0.0,0.0,0.0,0.0,1.0,0.0,0.0,0.0,0.0,0.0,0.0,0.0,0.0,0.0,0.0,0.0,1.0,0.0,2Pt,2Pt_B_200108_200201_200301,0.0,2Cz_B_200108_200201_200301,2
"Poland, 05-825, Marynin, Partyzantów AK, 24",52.070354,20.700409,495.0,BHA,05-825,Marynin,Partyzantów AK,24.0,1.0,200108_200201_200301,co tydzień piątek,1 raz w tygodniu,"1, 2, 3, 4",Pt,0.0,0.0,4.0,0.0,0.0,0.0,0.0,1.0,0.0,0.0,0.0,0.0,0.0,1.0,0.0,0.0,0.0,0.0,0.0,1.0,0.0,0.0,0.0,0.0,0.0,1.0,0.0,2Pt,2Pt_B_200108_200201_200301,0.0,2Cz_B_200108_200201_200301,2
"Poland, 05-825, Adamowizna, Niedźwiedzia, 13",52.0771,20.62381,495.0,BRB,05-825,Adamowizna,Niedźwiedzia,13.0,1.0,200108_200201_200301,co tydzień czwartek,1 raz w tygodniu,"1, 2, 3, 4",Cz,0.0,0.0,4.0,0.0,0.0,0.0,1.0,0.0,0.0,0.0,0.0,0.0,1.0,0.0,0.0,0.0,0.0,0.0,1.0,0.0,0.0,0.0,0.0,0.0,1.0,0.0,0.0,2Cz,2Cz_B_200108_200201_200301,1.0,2Cz_B_200108_200201_200301,2
"Poland, 05-825, Kozerki, Merkurego, 20",52.094227,20.579937,495.0,BRB,05-825,Kozerki,Merkurego,20.0,1.0,200108_200201_200301,2 i 4 czwartek,2 razy w miesiącu,"2, 4",Cz,0.0,0.0,2.0,0.0,0.0,0.0,0.0,0.0,0.0,0.0,0.0,0.0,1.0,0.0,0.0,0.0,0.0,0.0,0.0,0.0,0.0,0.0,0.0,0.0,1.0,0.0,0.0,2Cz,2Cz_B_200108_200201_200301,1.0,2Cz_B_200108_200201_200301,2
"Poland, 05-825, Kozery, Ukośna, 12",52.10222,20.58101,495.0,BRB,05-825,Kozery,Ukośna,12.0,1.0,200108_200201_200301,2 i 4 czwartek,2 razy w miesiącu,"2, 4",Cz,0.0,0.0,2.0,0.0,0.0,0.0,0.0,0.0,0.0,0.0,0.0,0.0,1.0,0.0,0.0,0.0,0.0,0.0,0.0,0.0,0.0,0.0,0.0,0.0,1.0,0.0,0.0,2Cz,2Cz_B_200108_200201_200301,1.0,2Cz_B_200108_200201_200301,2
"Poland, 05-840, Brwinów, Dworska, 17",52.14362,20.712795,54.0,BHC,05-840,Brwinów,Dworska,17.0,1.0,200108_200201_200301,2 i 4 czwartek,2 razy w miesiącu,"2, 4",Cz,0.0,0.0,2.0,0.0,0.0,0.0,0.0,0.0,0.0,0.0,0.0,0.0,1.0,0.0,0.0,0.0,0.0,0.0,0.0,0.0,0.0,0.0,0.0,0.0,1.0,0.0,0.0,2Cz,2Cz_B_200108_200201_200301,1.0,2Cz_B_200108_200201_200301,2
"Poland, 05-830, Stara Wieś, Sygietyńskich, 6",52.081055,20.763086,108.0,BHC,05-830,Stara Wieś,Sygietyńskich,6.0,1.0,200108_200201_200301,2 i 4 piątek,2 razy w miesiącu,"2, 4",Pt,0.0,0.0,2.0,0.0,0.0,0.0,0.0,0.0,0.0,0.0,0.0,0.0,0.0,1.0,0.0,0.0,0.0,0.0,0.0,0.0,0.0,0.0,0.0,0.0,0.0,1.0,0.0,2Pt,2Pt_B_200108_200201_200301,0.0,2Cz_B_200108_200201_200301,2
"Zawodzie 18, 02-981 Warszawa",52.183426,21.085442,0.0,,,,,,,,,,,,,,,,,,,,,,,,,,,,,,,,,,,,,,,,,,,2
