full address,latitude,longitude,Pojemnosc,Rodzaj klienta,Kod pocz.,Miasto,Ulica,Nr budynku,Ilość poj.,Kod odpadu,Cykl,Harmonogram,Numer tygodnia,Dni tygodnia,Okres_start,Okres_stop,Suma kontrolna,1Pn,1Wt,1Sr,1Cz,1Pt,1So,2Pn,2Wt,2Sr,2Cz,2Pt,2So,3Pn,3Wt,3Sr,3Cz,3Pt,3So,4Pn,4Wt,4Sr,4Cz,4Pt,4So,Częstotliwość,groups,outliner,new_frequency,route
"Zawodzie 18, 02-981 Warszawa",52.183426,21.085442,0.0,,,,,,,,,,,,,,,,,,,,,,,,,,,,,,,,,,,,,,,,,,,1
"Poland, 02-676, Warszawa, Domaniewska, 9",52.18284,21.018732,495.0,BWB,02-676,Warszawa,Domaniewska,9.0,1.0,200108_200201_200301,wtorek piątek,2 razy w tygodniu,"1, 2, 3, 4","Wt, Pt",0.0,0.0,8.0,0.0,1.0,0.0,0.0,1.0,0.0,0.0,1.0,0.0,0.0,1.0,0.0,0.0,1.0,0.0,0.0,1.0,0.0,0.0,1.0,0.0,0.0,1.0,0.0,4Wt,4Wt_B_200108_200201_200301,1.0,4Wt_B_200108_200201_200301,1
"Poland, 05-850, Macierzysz, Sławęcińska, 34",52.22025,20.851524,108.0,BHC,05-850,Macierzysz,Sławęcińska,34.0,1.0,200108_200201_200301,2 i 4 wtorek,2 razy w miesiącu,"2, 4",Wt,0.0,0.0,2.0,0.0,0.0,0.0,0.0,0.0,0.0,0.0,1.0,0.0,0.0,0.0,0.0,0.0,0.0,0.0,0.0,0.0,0.0,0.0,1.0,0.0,0.0,0.0,0.0,4Wt,4Wt_B_200108_200201_200301,1.0,4Wt_B_200108_200201_200301,1
"Poland, 05-860, Święcice, Zaborowska, 20",52.216965,20.69205,2250.0,BHB,05-860,Święcice,Zaborowska,20.0,1.0,200108_200201_200301,2 i 4 wtorek,2 razy w miesiącu,"2, 4",Wt,0.0,0.0,2.0,0.0,0.0,0.0,0.0,0.0,0.0,0.0,1.0,0.0,0.0,0.0,0.0,0.0,0.0,0.0,0.0,0.0,0.0,0.0,1.0,0.0,0.0,0.0,0.0,4Wt,4Wt_B_200108_200201_200301,1.0,4Wt_B_200108_200201_200301,1
"Poland, 05-825, Grodzisk Mazowiecki, Kłudno Stare, 19",52.15157,20.597408,495.0,BRC,05-825,Grodzisk Mazowiecki,Kłudno Stare,19.0,1.0,200108_200201_200301,2 i 4 wtorek,2 razy w miesiącu,"2, 4",Wt,0.0,0.0,2.0,0.0,0.0,0.0,0.0,0.0,0.0,0.0,1.0,0.0,0.0,0.0,0.0,0.0,0.0,0.0,0.0,0.0,0.0,0.0,1.0,0.0,0.0,0.0,0.0,4Wt,4Wt_B_200108_200201_200301,1.0,4Wt_B_200108_200201_200301,1
"Poland, 05-825, Grodzisk Mazowiecki, Nadarzyńska, 26",52.09869,20.648657,495.0,BRB,05-825,Grodzisk Mazowiecki,Nadarzyńska,26.0,1.0,200108_200201_200301,co tydzień wtorek,1 raz w tygodniu,"1, 2, 3, 4",Wt,0.0,0.0,4.0,0.0,1.0,0.0,0.0,0.0,0.0,0.0,1.0,0.0,0.0,0.0,0.0,0.0,1.0,0.0,0.0,0.0,0.0,0.0,1.0,0.0,0.0,0.0,0.0,4Wt,4Wt_B_200108_200201_200301,1.0,4Wt_B_200108_200201_200301,1
"Poland, , Pilaszków, Nowowiejska, 11",52.23246,20.692501,495.0,BHC,,Pilaszków,Nowowiejska,11.0,1.0,200108_200201_200301,co tydzień wtorek,1 raz w tygodniu,"1, 2, 3, 4",Wt,0.0,0.0,4.0,0.0,1.0,0.0,0.0,0.0,0.0,0.0,1.0,0.0,0.0,0.0,0.0,0.0,1.0,0.0,0.0,0.0,0.0,0.0,1.0,0.0,0.0,0.0,0.0,4Wt,4Wt_B_200108_200201_200301,1.0,4Wt_B_200108_200201_200301,1
"Poland, 05-840, Koszajec, Św. Józefa, 11",52.168697,20.748554,495.0,BHB,05-840,Koszajec,Św. Józefa,11.0,1.0,200108_200201_200301,wtorek czwartek,2 razy w tygodniu,"1, 2, 3, 4","Wt, Cz",0.0,0.0,8.0,0.0,1.0,0.0,1.0,0.0,0.0,0.0,1.0,0.0,1.0,0.0,0.0,0.0,1.0,0.0,1.0,0.0,0.0,0.0,1.0,0.0,1.0,0.0,0.0,4Wt,4Wt_B_200108_200201_200301,1.0,4Wt_B_200108_200201_200301,1
"Poland, 05-800, Pruszków, Magazynowa, 25",52.16071,20.768394,495.0,BHC,05-800,Pruszków,Magazynowa,25.0,1.0,200108_200201_200301,co tydzień wtorek,1 raz w tygodniu,"1, 2, 3, 4",Wt,0.0,0.0,4.0,0.0,1.0,0.0,0.0,0.0,0.0,0.0,1.0,0.0,0.0,0.0,0.0,0.0,1.0,0.0,0.0,0.0,0.0,0.0,1.0,0.0,0.0,0.0,0.0,4Wt,4Wt_B_200108_200201_200301,1.0,4Wt_B_200108_200201_200301,1
"Poland, 05-850, Ożarów Mazowiecki, Gen. Henryka Dąbrowskiego, 31",52.217934,20.798326,495.0,BHB,05-850,Ożarów Mazowiecki,Gen. Henryka Dąbrowskiego,31.0,1.0,200108_200201_200301,co tydzień wtorek,1 raz w tygodniu,"1, 2, 3, 4",Wt,0.0,0.0,4.0,0.0,1.0,0.0,0.0,0.0,0.0,0.0,1.0,0.0,0.0,0.0,0.0,0.0,1.0,0.0,0.0,0.0,0.0,0.0,1.0,0.0,0.0,0.0,0.0,4Wt,4Wt_B_200108_200201_200301,1.0,4Wt_B_200108_200201_200301,1
"Poland, 05-800, Pruszków, al. Wojska Polskiego, 30",52.16136,20.802122,108.0,BWC,05-800,Pruszków,al. Wojska Polskiego,30.0,1.0,200108_200201_200301,wtorek czwartek,2 razy w tygodniu,"1, 2, 3, 4","Wt, Cz",0.0,0.0,8.0,0.0,1.0,0.0,1.0,0.0,0.0,0.0,1.0,0.0,1.0,0.0,0.0,0.0,1.0,0.0,1.0,0.0,0.0,0.0,1.0,0.0,1.0,0.0,0.0,4Wt,4Wt_B_200108_200201_200301,1.0,4Wt_B_200108_200201_200301,1
"Poland, 05-850, Ożarów Mazowiecki, Nadbrzeżna, 20",52.216953,20.798105,495.0,BHC,05-850,Ożarów Mazowiecki,Nadbrzeżna,20.0,1.0,200108_200201_200301,co tydzień wtorek,1 raz w tygodniu,"1, 2, 3, 4",Wt,0.0,0.0,4.0,0.0,1.0,0.0,0.0,0.0,0.0,0.0,1.0,0.0,0.0,0.0,0.0,0.0,1.0,0.0,0.0,0.0,0.0,0.0,1.0,0.0,0.0,0.0,0.0,4Wt,4Wt_B_200108_200201_200301,1.0,4Wt_B_200108_200201_200301,1
"Poland, 05-850, Konotopa, Rajdowa, 29",52.19826,20.82172,3150.0,BHA,05-850,Konotopa,Rajdowa,29.0,1.0,200108_200201_200301,co tydzień wtorek,1 raz w tygodniu,"1, 2, 3, 4",Wt,0.0,0.0,4.0,0.0,1.0,0.0,0.0,0.0,0.0,0.0,1.0,0.0,0.0,0.0,0.0,0.0,1.0,0.0,0.0,0.0,0.0,0.0,1.0,0.0,0.0,0.0,0.0,4Wt,4Wt_B_200108_200201_200301,1.0,4Wt_B_200108_200201_200301,1
"Poland, 05-850, Ożarów Mazowiecki, Floriana, 6",52.21562,20.802372,54.0,BHC,05-850,Ożarów Mazowiecki,Floriana,6.0,1.0,200108_200201_200301,co tydzień wtorek,1 raz w tygodniu,"1, 2, 3, 4",Wt,0.0,0.0,4.0,0.0,1.0,0.0,0.0,0.0,0.0,0.0,1.0,0.0,0.0,0.0,0.0,0.0,1.0,0.0,0.0,0.0,0.0,0.0,1.0,0.0,0.0,0.0,0.0,4Wt,4Wt_B_200108_200201_200301,1.0,4Wt_B_200108_200201_200301,1
"Poland, 05-082, Stare Babice, Ogrodnicza, 31",52.238663,20.843035,495.0,BHA,05-082,Stare Babice,Ogrodnicza,31.0,1.0,200108_200201_200301,2 i 4 wtorek,2 razy w miesiącu,"2, 4",Wt,0.0,0.0,2.0,0.0,0.0,0.0,0.0,0.0,0.0,0.0,1.0,0.0,0.0,0.0,0.0,0.0,0.0,0.0,0.0,0.0,0.0,0.0,1.0,0.0,0.0,0.0,0.0,4Wt,4Wt_B_200108_200201_200301,1.0,4Wt_B_200108_200201_200301,1
"Poland, 05-082, Stare Babice, Józefa Piłsudskiego, 11",52.249077,20.841364,108.0,BHA,05-082,Stare Babice,Józefa Piłsudskiego,11.0,1.0,200108_200201_200301,2 i 4 wtorek,2 razy w miesiącu,"2, 4",Wt,0.0,0.0,2.0,0.0,0.0,0.0,0.0,0.0,0.0,0.0,1.0,0.0,0.0,0.0,0.0,0.0,0.0,0.0,0.0,0.0,0.0,0.0,1.0,0.0,0.0,0.0,0.0,4Wt,4Wt_B_200108_200201_200301,1.0,4Wt_B_200108_200201_200301,1
"Poland, 05-831, Młochów, Al. Kasztanowa, 6",52.071926,20.77627,3150.0,BHA,05-831,Młochów,Al. Kasztanowa,6.0,1.0,200108_200201_200301,wtorek piątek,2 razy w tygodniu,"1, 2, 3, 4","Wt, Pt",0.0,0.0,8.0,0.0,1.0,0.0,0.0,1.0,0.0,0.0,1.0,0.0,0.0,1.0,0.0,0.0,1.0,0.0,0.0,1.0,0.0,0.0,1.0,0.0,0.0,1.0,0.0,4Wt,4Wt_B_200108_200201_200301,1.0,4Wt_B_200108_200201_200301,1
"Poland, 05-082, Stare Babice, Kutrzeby, 6",52.255184,20.830475,108.0,BHA,05-082,Stare Babice,Kutrzeby,6.0,1.0,200108_200201_200301,2 i 4 wtorek,2 razy w miesiącu,"2, 4",Wt,0.0,0.0,2.0,0.0,0.0,0.0,0.0,0.0,0.0,0.0,1.0,0.0,0.0,0.0,0.0,0.0,0.0,0.0,0.0,0.0,0.0,0.0,1.0,0.0,0.0,0.0,0.0,4Wt,4Wt_B_200108_200201_200301,1.0,4Wt_B_200108_200201_200301,1
"Poland, 01-014, Warszawa, Żytnia, 13",52.239292,20.981764,495.0,BWA,01-014,Warszawa,Żytnia,13.0,1.0,200108_200201_200301,poniedziałek wtorek czwartek piątek,4 razy w tygodniu,"1, 2, 3, 4","Pn, Wt, Cz, Pt",0.0,0.0,16.0,1.0,1.0,0.0,1.0,1.0,0.0,1.0,1.0,0.0,1.0,1.0,0.0,1.0,1.0,0.0,1.0,1.0,0.0,1.0,1.0,0.0,1.0,1.0,0.0,4Wt,4Wt_B_200108_200201_200301,1.0,4Wt_B_200108_200201_200301,1
"Poland, 02-497, Warszawa, AL.Jerozolimskie, 8",52.232628,21.023415,495.0,BWA,02-497,Warszawa,AL.Jerozolimskie,8.0,1.0,200108_200201_200301,poniedziałek wtorek środa czwartek piątek,5 razy w tygodniu,"1, 2, 3, 4","Pn, Wt, Sr, Cz, Pt",0.0,0.0,20.0,1.0,1.0,1.0,1.0,1.0,0.0,1.0,1.0,1.0,1.0,1.0,0.0,1.0,1.0,1.0,1.0,1.0,0.0,1.0,1.0,1.0,1.0,1.0,0.0,4Wt,4Wt_B_200108_200201_200301,1.0,4Wt_B_200108_200201_200301,1
"Zawodzie 18, 02-981 Warszawa",52.183426,21.085442,0.0,,,,,,,,,,,,,,,,,,,,,,,,,,,,,,,,,,,,,,,,,,,1
